COD_MUNICIPIO,MPNOM,LATITUD,LONGITUD,DP
5001,Medellín,6.24858636743,-75.5760017134,5
5002,Abejorral,5.78930111433,-75.4287403904,5
5004,Abriaquí,6.63228195504,-76.0642948678,5
5021,Alejandría,6.37606264274,-75.141334501,5
5030,Amagá,6.03880842381,-75.7019483389,5
5031,Amalfi,6.90967360478,-75.0774749239,5
5034,Andes,5.65676971311,-75.878794075,5
5036,Angelópolis,6.10961277767,-75.7113533837,5
5038,Angostura,6.88518441484,-75.3351091186,5
5040,Anorí,7.07471004137,-75.1483449609,5
5042,Santafé de Antioquia,6.55653286033,-75.8270783216,5
5044,Anzá,6.3026667644,-75.854448759,5
5045,Apartadó,7.88325108195,-76.6258909217,5
5051,Arboletes,8.84991827334,-76.4266581639,5
5055,Argelia,5.73147922832,-75.1410633595,5
5059,Armenia,6.15567240561,-75.7866245369,5
5079,Barbosa,6.4392260115,-75.3316403017,5
5086,Belmira,6.60615865921,-75.6673737242,5
5088,Bello,6.33406558292,-75.5546673053,5
5091,Betania,5.74619656152,-75.9767139414,5
5093,Betulia,6.11525553285,-75.9845155699,5
5101,Ciudad Bolívar,5.85027282845,-76.0215106815,5
5107,Briceño,7.11280551402,-75.550356304,5
5113,Buriticá,6.72064775464,-75.9070561536,5
5120,Cáceres,7.57831474335,-75.3523573153,5
5125,Caicedo,6.40556397358,-75.9828123649,5
5129,Caldas,6.09129760323,-75.6336168248,5
5134,Campamento,6.97977648289,-75.298084784,5
5138,Cañasgordas,6.7538443832,-76.0282237214,5
5142,Caracolí,6.40985175825,-74.7574542879,5
5145,Caramanta,5.54853427166,-75.6438712654,5
5147,Carepa,7.75511548219,-76.653210744,5
5148,El Carmen de Viboral,6.08347326731,-75.3342620232,5
5150,Carolina,,,5
5154,Caucasia,7.97734097812,-75.1982784645,5
5172,Chigorodó,7.66630069082,-76.6812146131,5
5190,Cisneros,6.53776304826,-75.0872051341,5
5197,Cocorná,6.05830616761,-75.1854817244,5
5206,Concepción,6.39435397644,-75.257601243,5
5209,Concordia,6.04608659615,-75.9084535194,5
5212,Copacabana,6.34863947056,-75.5093435119,5
5234,Dabeiba,6.99811575168,-76.2616178227,5
5237,Donmatías,6.48560723899,-75.3926751288,5
5240,Ebéjico,6.32605663471,-75.7662136607,5
5250,El Bagre,7.5975218855,-74.7990970119,5
5264,Entrerríos,6.56648234736,-75.517805693,5
5266,Envigado,6.16700589298,-75.5830089369,5
5282,Fredonia,5.9280855467,-75.6750932516,5
5284,Frontino,6.77606285319,-76.1307652118,5
5306,Giraldo,6.68080793863,-75.9521573015,5
5308,Girardota,6.37961535607,-75.4444597681,5
5310,Gómez Plata,6.68327964232,-75.2200360918,5
5313,Granada,6.1429023597,-75.1844500639,5
5315,Guadalupe,6.81506996357,-75.2398564806,5
5318,Guarne,6.27802696108,-75.4416535712,5
5321,Guatapé,6.23240969843,-75.1600208818,5
5347,Heliconia,6.20676229056,-75.7343322889,5
5353,Hispania,5.79946280832,-75.906590966,5
5360,Itagüí,6.174929734,-75.6120815283,5
5361,Ituango,7.17163748398,-75.7646752276,5
5364,Jardín,5.59753984677,-75.8189807815,5
5368,Jericó,5.78974203756,-75.7855038531,5
5376,La Ceja,6.02805465836,-75.4294329272,5
5380,La Estrella,6.15841993,-75.645190382,5
5390,La Pintada,5.74380769651,-75.6078057481,5
5400,La Unión,5.97387113417,-75.3608622911,5
5411,Liborina,6.67732537607,-75.8128326075,5
5425,Maceo,6.55211468066,-74.7871571162,5
5440,Marinilla,6.17404951538,-75.3394598367,5
5467,Montebello,5.94632388294,-75.5235098947,5
5475,Murindó,6.97768956086,-76.8174595267,5
5480,Mutatá,7.24287193339,-76.4358758959,5
5483,Nariño,5.61077722195,-75.1762617711,5
5490,Necoclí,8.426136098,-76.784574497,5
5495,Nechí,8.09412977783,-74.7764699611,5
5501,Olaya,6.62660499706,-75.8118744168,5
5541,Peñol,6.21945021233,-75.2428178132,5
5543,Peque,7.02103925848,-75.9103556989,5
5576,Pueblorrico,5.79168858961,-75.8397134748,5
5579,Puerto Berrío,6.48703921007,-74.4099459786,5
5585,Puerto Nare,6.18602382303,-74.5830116056,5
5591,Puerto Triunfo,5.87120719689,-74.6412656382,5
5604,Remedios,7.02939076621,-74.6980471636,5
5607,Retiro,6.06338107129,-75.5013756659,5
5615,Rionegro,6.1472245313,-75.3767667557,5
5628,Sabanalarga,6.85002081371,-75.8166459364,5
5631,Sabaneta,6.15096981767,-75.6155845416,5
5642,Salgar,5.965640311,-75.982048544,5
5647,San Andrés de Cuerquía,6.91680279924,-75.6747339859,5
5649,San Carlos,6.18798980145,-74.9879605158,5
5652,San Francisco,5.96362010537,-75.1015695493,5
5656,San Jerónimo,6.44806585636,-75.7270000843,5
5658,San José de La Montaña,6.85008880044,-75.6833564182,5
5659,San Juan de Urabá,8.75934428139,-76.5288010416,5
5660,San Luis,6.04298332565,-74.9936401255,5
5664,San Pedro de Los Milagros,6.46013808244,-75.5567189241,5
5665,San Pedro de Urabá,8.27688468914,-76.3805785791,5
5667,San Rafael,6.29375698332,-75.0279828807,5
5670,San Roque,6.48594047044,-75.0191661484,5
5674,San Vicente,,,5
5679,Santa Bárbara,5.87554181135,-75.5673548634,5
5686,Santa Rosa de Osos,6.64332643406,-75.460740037,5
5690,Santo Domingo,6.47283350377,-75.1649580592,5
5697,El Santuario,6.13685720436,-75.2654679804,5
5736,Segovia,7.07963898594,-74.701588722,5
5756,Sonsón,5.7148075835,-75.3093960124,5
5761,Sopetrán,6.50099259435,-75.7472528656,5
5789,Támesis,5.66446916892,-75.7143199749,5
5790,Tarazá,7.58011943984,-75.4014092118,5
5792,Tarso,5.86455255901,-75.8229504893,5
5809,Titiribí,6.06239757787,-75.791888749,5
5819,Toledo,7.01015899618,-75.6914357609,5
5837,Turbo,8.08911317497,-76.7291596582,5
5842,Uramita,6.89849767647,-76.1734055678,5
5847,Urrao,6.31731976564,-76.1339511488,5
5854,Valdivia,7.1653440936,-75.4391982543,5
5856,Valparaíso,5.6145548154,-75.6244635468,5
5858,Vegachí,6.77345020849,-74.7987268739,5
5861,Venecia,5.96473060641,-75.7355000679,5
5873,Vigía del Fuerte,6.58812341865,-76.8961862476,5
5885,Yalí,6.67657240531,-74.8400531922,5
5887,Yarumal,6.96387109143,-75.4188327746,5
5890,Yolombó,6.59459588827,-75.0133479509,5
5893,Yondó,,,5
5895,Zaragoza,7.48858244262,-74.8670728872,5
8001,Barranquilla,10.9783195607,-74.8132169683,8
8078,Baranoa,10.7948815688,-74.916106093,8
8137,Campo de La Cruz,10.3782957218,-74.8808535392,8
8141,Candelaria,10.4612089848,-74.8799120495,8
8296,Galapa,10.9191614915,-74.8703439389,8
8372,Juan de Acosta,10.8323387608,-75.0406070886,8
8421,Luruaco,10.6111248118,-75.1422887632,8
8433,Malambo,10.856822692,-74.7748637454,8
8436,Manatí,10.4489620358,-74.9570353895,8
8520,Palmar de Varela,10.7385825597,-74.7547589307,8
8549,Piojó,10.7493431731,-75.1074681737,8
8558,Polonuevo,10.7771663073,-74.8531024212,8
8560,Ponedera,10.6417959018,-74.7539006043,8
8573,Puerto Colombia,11.022939949,-74.851963055,8
8606,Repelón,10.4933403213,-75.1254822303,8
8634,Sabanagrande,10.7910757719,-74.7585063109,8
8638,Sabanalarga,10.6328326108,-74.9210950072,8
8675,Santa Lucía,10.3243082813,-74.9592075848,8
8685,Santo Tomás,10.7587230349,-74.7577207286,8
8758,Soledad,10.9101742784,-74.7848339582,8
8770,Suan,10.3354309226,-74.8816874004,8
8832,Tubará,10.8736512946,-74.9786801062,8
8849,Usiacurí,10.742979811,-74.9769840969,8
11001,"Bogotá, D.C.",4.64993705899,-74.106715324,11
13001,Cartagena de Indias,10.3849883546,-75.4964264795,13
13006,Achí,8.56945622216,-74.5575205453,13
13030,Altos del Rosario,8.79160326038,-74.1650526808,13
13042,Arenal,8.45862922844,-73.9411210687,13
13052,Arjona,10.256630539,-75.3444876588,13
13062,Arroyohondo,10.250075878,-75.019214913,13
13074,Barranco de Loba,8.94773040932,-74.105224848,13
13140,Calamar,10.2503611819,-74.9161222621,13
13160,Cantagallo,7.37831394834,-73.9146507991,13
13188,Cicuco,9.27456085808,-74.645585537,13
13212,Córdoba,9.58690944657,-74.8274640871,13
13222,Clemencia,10.5675414931,-75.3285123927,13
13244,El Carmen de Bolívar,9.71861199322,-75.1212066427,13
13248,El Guamo,10.0309150057,-74.9761147368,13
13268,El Peñón,8.98822535038,-73.9494279539,13
13300,Hatillo de Loba,8.95561446403,-74.0783633089,13
13430,Magangué,9.26381346247,-74.7667304396,13
13433,Mahates,10.2332538997,-75.1913392756,13
13440,Margarita,9.155517395,-74.280926824,13
13442,María La Baja,9.98264680271,-75.3007611748,13
13458,Montecristo,8.29724472765,-74.4714158637,13
13468,Mompós,,,13
13473,Morales,8.27630560493,-73.8681407138,13
13490,Norosí,8.52597866614,-74.0380603025,13
13549,Pinillos,8.91545237529,-74.4624038627,13
13580,Regidor,8.66625814425,-73.8216376256,13
13600,Río Viejo,8.587628771,-73.8399447912,13
13620,San Cristóbal,10.3928556679,-75.065534552,13
13647,San Estanislao,,,13
13650,San Fernando,9.21417846743,-74.3238659855,13
13654,San Jacinto,9.8302177331,-75.1210906283,13
13655,San Jacinto del Cauca,8.25173769531,-74.7208279737,13
13657,San Juan Nepomuceno,9.95345322129,-75.081354128,13
13667,San Martín de Loba,8.93709261013,-74.0390124624,13
13670,San Pablo,7.47671911473,-73.9241717171,13
13673,Santa Catalina,10.6050569813,-75.2877605206,13
13683,Santa Rosa,,,13
13688,Santa Rosa del Sur,7.96287055719,-74.0518401571,13
13744,Simití,7.95442830168,-73.9467782481,13
13760,Soplaviento,10.3884564354,-75.1364262581,13
13780,Talaigua Nuevo,9.30401724098,-74.5674682776,13
13810,Tiquisio,,,13
13836,Turbaco,10.332772802,-75.424409165,13
13838,Turbaná,10.2744001934,-75.4425018865,13
13873,Villanueva,10.4443304246,-75.2751686679,13
13894,Zambrano,9.74628103898,-74.8180006807,13
15001,Tunja,5.5399515492,-73.3554896602,15
15022,Almeida,4.97085237348,-73.378935594,15
15047,Aquitania,,,15
15051,Arcabuco,5.75546754184,-73.4375431565,15
15087,Belén,5.98928041246,-72.9116162763,15
15090,Berbeo,5.22728677682,-73.1270304656,15
15092,Betéitiva,5.90990555091,-72.809032309,15
15097,Boavita,6.33065368603,-72.5849675798,15
15104,Boyacá,5.45423551545,-73.3623009748,15
15106,Briceño,5.6908769735,-73.9232607965,15
15109,Buenavista,5.51242923727,-73.9423004687,15
15114,Busbanzá,5.83139321087,-72.8841622923,15
15131,Caldas,5.55457589379,-73.865542982,15
15135,Campohermoso,5.03166002315,-73.104168327,15
15162,Cerinza,5.95603263546,-72.9482718544,15
15172,Chinavita,5.16748347348,-73.3684756833,15
15176,Chiquinquirá,5.61412836353,-73.8183869915,15
15180,Chiscas,6.5534158413,-72.5016808693,15
15183,Chita,6.18708569854,-72.471892654,15
15185,Chitaraque,6.02742601824,-73.4471010235,15
15187,Chivatá,5.55894934359,-73.2825292916,15
15189,Ciénega,5.40870037319,-73.296061354,15
15204,Cómbita,5.63454905762,-73.3239523652,15
15212,Coper,5.47498409448,-74.0454584503,15
15215,Corrales,5.82810438505,-72.8447949701,15
15218,Covarachía,6.50018289986,-72.7389763109,15
15223,Cubará,6.99726745104,-72.1079447106,15
15224,Cucaita,5.54445121651,-73.4543383107,15
15226,Cuítiva,5.58036631554,-72.9659185304,15
15232,Chíquiza,0.0,0.0,15
15236,Chivor,4.88778166,-73.366893755,15
15238,Duitama,5.82298464605,-73.030610836,15
15244,El Cocuy,6.40771564853,-72.4447300399,15
15248,El Espino,6.48303062085,-72.4970129087,15
15272,Firavitoba,5.66892506903,-72.9933618342,15
15276,Floresta,5.85952057405,-72.9181118071,15
15293,Gachantivá,5.75188848507,-73.5490931245,15
15296,Gámeza,5.80233579091,-72.8055270159,15
15299,Garagoa,5.08324283869,-73.3644267841,15
15317,Guacamayas,6.45966545849,-72.5008156901,15
15322,Guateque,5.0073212036,-73.4712060695,15
15325,Guayatá,4.9671242815,-73.4896957862,15
15332,Güicán de La Sierra,6.46285998881,-72.411765819,15
15362,Iza,5.61157775921,-72.9795593407,15
15367,Jenesano,5.3857721813,-73.3638083915,15
15368,Jericó,6.14575069674,-72.5711238428,15
15377,Labranzagrande,5.56268780724,-72.5777694431,15
15380,La Capilla,5.09568803762,-73.4443470863,15
15401,La Victoria,5.5237945994,-74.2343971323,15
15403,La Uvita,6.3162062521,-72.5599870419,15
15407,Villa de Leyva,5.63265703354,-73.5246858959,15
15425,Macanal,4.97246523201,-73.3196492275,15
15442,Maripí,5.55008773144,-74.0040590487,15
15455,Miraflores,5.19651615513,-73.1456279863,15
15464,Mongua,5.75423927382,-72.7981001021,15
15466,Monguí,5.72340786063,-72.8492622931,15
15469,Moniquirá,5.87633305531,-73.5733706158,15
15476,Motavita,5.57770072028,-73.3678389344,15
15480,Muzo,5.53245722089,-74.1027542999,15
15491,Nobsa,5.771042607,-72.939853172,15
15494,Nuevo Colón,5.35514851706,-73.4571348371,15
15500,Oicatá,5.59523375635,-73.308404103,15
15507,Otanche,5.65753554395,-74.1809678964,15
15511,Pachavita,5.14006205365,-73.3969550834,15
15514,Páez,5.09789282185,-73.0525553002,15
15516,Paipa,5.77994168888,-73.1179179167,15
15518,Pajarito,5.29364101567,-72.7032202088,15
15522,Panqueba,6.44307619932,-72.4592015449,15
15531,Pauna,5.65632422107,-73.97844971,15
15533,Paya,5.6257001331,-72.4237755806,15
15537,Paz de Río,5.98764091396,-72.7491433309,15
15542,Pesca,5.55881131008,-73.0508685115,15
15550,Pisba,5.7216213544,-72.4859425146,15
15572,Puerto Boyacá,5.97664715502,-74.5877827354,15
15580,Quípama,5.52055370831,-74.1800347561,15
15599,Ramiriquí,5.4002211245,-73.3348676913,15
15600,Ráquira,5.53906792025,-73.6325018712,15
15621,Rondón,5.35740204136,-73.2084727551,15
15632,Saboyá,5.69773271604,-73.7646637544,15
15638,Sáchica,5.58359189812,-73.5426340731,15
15646,Samacá,5.49231280648,-73.4856416273,15
15660,San Eduardo,5.22409747529,-73.0777254035,15
15664,San José de Pare,6.01897480756,-73.5453757662,15
15667,San Luis de Gaceno,4.81969008637,-73.168359454,15
15673,San Mateo,6.40168195892,-72.5552600266,15
15676,San Miguel de Sema,5.51808577641,-73.7220038544,15
15681,San Pablo de Borbur,5.65067434872,-74.0699641591,15
15686,Santana,6.05741393498,-73.481231213,15
15690,Santa María,4.85719292711,-73.2635138961,15
15693,Santa Rosa de Viterbo,5.87455316111,-72.9824613082,15
15696,Santa Sofía,5.71326789499,-73.6027094257,15
15720,Sativanorte,6.13113651918,-72.7084627036,15
15723,Sativasur,6.09317687278,-72.7124418159,15
15740,Siachoque,5.51181744443,-73.2446486951,15
15753,Soatá,6.3319109478,-72.6840262208,15
15755,Socotá,6.04117646761,-72.6366624073,15
15757,Socha,5.99671302142,-72.6919658568,15
15759,Sogamoso,5.72568884872,-72.9230476498,15
15761,Somondoco,4.985727338,-73.4333927745,15
15762,Sora,5.56684464415,-73.4501549565,15
15763,Sotaquirá,5.76498918403,-73.2465867116,15
15764,Soracá,5.50090450683,-73.3328033775,15
15774,Susacón,6.23033660169,-72.6902910831,15
15776,Sutamarchán,5.61978069759,-73.6205898779,15
15778,Sutatenza,5.02298844106,-73.4523142451,15
15790,Tasco,5.90981708972,-72.7810075025,15
15798,Tenza,5.07677835138,-73.4211738566,15
15804,Tibaná,5.31725075558,-73.396456268,15
15806,Tibasosa,5.74722853114,-72.9994496769,15
15808,Tinjacá,5.57971084145,-73.6468538952,15
15810,Tipacoque,6.418582881,-72.693172676,15
15814,Toca,5.56646952357,-73.1847912527,15
15816,Togüí,5.93743780547,-73.5136559101,15
15820,Tópaga,5.76819800709,-72.832247594,15
15822,Tota,5.56050183137,-72.9858969227,15
15832,Tununguá,5.730577511,-73.933158144,15
15835,Turmequé,5.32325210287,-73.4918448747,15
15837,Tuta,5.68880380751,-73.2308547731,15
15839,Tutazá,6.03261007719,-72.856038442,15
15842,Úmbita,5.2211724175,-73.4569158202,15
15861,Ventaquemada,5.36885763606,-73.5224525403,15
15879,Viracachá,5.43678857653,-73.2969005657,15
15897,Zetaquira,5.28342464863,-73.1709723341,15
17001,Manizales,5.05768733557,-75.4910467146,17
17013,Aguadas,5.61024846724,-75.454871642,17
17042,Anserma,5.23647611674,-75.784340784,17
17050,Aranzazu,5.27119632374,-75.4912889044,17
17088,Belalcázar,4.99382148715,-75.8119012073,17
17174,Chinchiná,4.98581250175,-75.6074818919,17
17272,Filadelfia,5.29709791696,-75.5624695597,17
17380,La Dorada,5.46047440177,-74.6684167053,17
17388,La Merced,5.3963721836,-75.5465723441,17
17433,Manzanares,5.25570837762,-75.1528372887,17
17442,Marmato,5.47400212843,-75.6002457911,17
17444,Marquetalia,5.29752541271,-75.0530937905,17
17446,Marulanda,5.28433541214,-75.2594017111,17
17486,Neira,5.16670622135,-75.5198428283,17
17495,Norcasia,5.57479382266,-74.8895443807,17
17513,Pácora,5.52717452159,-75.4596225837,17
17524,Palestina,5.01783945198,-75.6244642214,17
17541,Pensilvania,5.38327868783,-75.1603002765,17
17614,Riosucio,5.42367236012,-75.7020653762,17
17616,Risaralda,5.16419213427,-75.7672745412,17
17653,Salamina,5.40301872766,-75.4872184576,17
17662,Samaná,5.41308071675,-74.9922442639,17
17665,San José,5.08231096392,-75.7920593314,17
17777,Supía,5.44683429424,-75.6496602648,17
17867,Victoria,5.31741797231,-74.9111571246,17
17873,Villamaría,5.043806686,-75.513760602,17
17877,Viterbo,5.06266333127,-75.870613237,17
18001,Florencia,1.61792408755,-75.6085597398,18
18029,Albania,1.328518696,-75.8783708545,18
18094,Belén de Los Andaquíes,1.41578334458,-75.8724736813,18
18150,Cartagena del Chairá,1.3331165659,-74.847245546,18
18205,Curillo,1.03347658287,-75.9192010073,18
18247,El Doncello,1.67986937815,-75.2835647468,18
18256,El Paujíl,1.57037091057,-75.3261226748,18
18410,La Montañita,1.4791703207,-75.4364058573,18
18460,Milán,1.29041194077,-75.5069587121,18
18479,Morelia,1.48661416104,-75.7241445423,18
18592,Puerto Rico,1.90893446756,-75.1574899204,18
18610,San José del Fragua,1.33009035894,-75.9736270384,18
18753,San Vicente del Caguán,2.119492544,-74.768675935,18
18756,Solano,0.69897426193,-75.2537069229,18
18785,Solita,0.876668991021,-75.619734067,18
18860,Valparaíso,1.19458258545,-75.7065851397,18
19001,Popayán,2.45994897276,-76.5988923721,19
19022,Almaguer,1.91336278103,-76.8559227702,19
19050,Argelia,2.2567543324,-77.2494517909,19
19075,Balboa,2.04048647608,-77.2158965955,19
19100,Bolívar,1.83741330862,-76.966314876,19
19110,Buenos Aires,3.01543022433,-76.64227784,19
19130,Cajibío,2.62334023515,-76.5708848354,19
19137,Caldono,2.79812829791,-76.4844459642,19
19142,Caloto,3.03407175083,-76.4084869367,19
19212,Corinto,3.17381378314,-76.2613129114,19
19256,El Tambo,2.45137293838,-76.8107676072,19
19290,Florencia,1.68251705547,-77.0725301404,19
19300,Guachené,3.13415024191,-76.3921808995,19
19318,Guapi,2.57134940647,-77.8879701101,19
19355,Inzá,2.54918501375,-76.0634951224,19
19364,Jambaló,2.7778396408,-76.3238756382,19
19392,La Sierra,2.17932480074,-76.7632016273,19
19397,La Vega,2.00178599421,-76.7786274369,19
19418,López de Micay,,,19
19450,Mercaderes,1.7924236808,-77.1641946504,19
19455,Miranda,3.25456871367,-76.2285628308,19
19473,Morales,2.75455782584,-76.6292210027,19
19513,Padilla,3.22084946043,-76.3132915458,19
19517,Páez,,,19
19532,Patía,2.06919819073,-77.053281163,19
19533,Piamonte,1.11792823066,-76.3270881401,19
19548,Piendamó - Tunía,,,19
19573,Puerto Tejada,3.23329388435,-76.4173065509,19
19585,Puracé,2.38106122505,-76.4553662405,19
19622,Rosas,2.26096996661,-76.7403500133,19
19693,San Sebastián,1.83837093703,-76.7693155247,19
19698,Santander de Quilichao,3.0160508863,-76.4853693048,19
19701,Santa Rosa,1.70241741098,-76.5739728417,19
19743,Silvia,2.611815128,-76.3795694468,19
19760,Sotará Paispamba,,,19
19780,Suárez,2.95970043631,-76.6934495691,19
19785,Sucre,2.0382579101,-76.9262768869,19
19807,Timbío,2.34997651977,-76.6842365775,19
19809,Timbiquí,2.77741263243,-77.6675621458,19
19821,Toribío,2.95299012669,-76.2703068212,19
19824,Totoró,2.51025062018,-76.4036268299,19
19845,Villa Rica,3.17757710044,-76.4578733961,19
20001,Valledupar,10.4604806696,-73.2593904181,20
20011,Aguachica,8.30735417168,-73.6129927186,20
20013,Agustín Codazzi,10.040457318,-73.2383965158,20
20032,Astrea,9.49816273938,-73.9758629785,20
20045,Becerril,9.70460046236,-73.2791963317,20
20060,Bosconia,9.975094669,-73.888765758,20
20175,Chimichagua,9.2582722175,-73.8133298841,20
20178,Chiriguaná,9.36118941734,-73.600147529,20
20228,Curumaní,9.20181049336,-73.5409854392,20
20238,El Copey,10.1495254704,-73.9627178522,20
20250,El Paso,9.66847095606,-73.741788511,20
20295,Gamarra,8.32432947636,-73.7380076768,20
20310,González,8.38960324723,-73.380042178,20
20383,La Gloria,8.61929805971,-73.8032098836,20
20400,La Jagua de Ibirico,9.56388783532,-73.3342269159,20
20443,Manaure Balcón del Cesar,10.3907748357,-73.0294704117,20
20517,Pailitas,8.95939949775,-73.6257673178,20
20550,Pelaya,8.68865050982,-73.6663564352,20
20570,Pueblo Bello,10.4172860694,-73.5862472969,20
20614,Río de Oro,8.29228968373,-73.3863920498,20
20621,La Paz,,,20
20710,San Alberto,7.76082444485,-73.3942253371,20
20750,San Diego,10.333031354,-73.1812177024,20
20770,San Martín,7.99989421258,-73.5109750558,20
20787,Tamalameque,8.86172485582,-73.8121730964,20
23001,Montería,8.75981523965,-75.8732573059,23
23068,Ayapel,8.31444592737,-75.1462884773,23
23079,Buenavista,8.22116707849,-75.4808968789,23
23090,Canalete,,,23
23162,Cereté,8.88859098259,-75.7961971634,23
23168,Chimá,9.14947838025,-75.6268945872,23
23182,Chinú,9.10529229865,-75.3997215182,23
23189,Ciénaga de Oro,8.87550305273,-75.6207853009,23
23300,Cotorra,9.03708855987,-75.7991480544,23
23350,La Apartada,8.04990063857,-75.3357616802,23
23417,Lorica,,,23
23419,Los Córdobas,8.89216246089,-76.3551906966,23
23464,Momil,9.24071061295,-75.6779588318,23
23466,Montelíbano,7.97377871713,-75.4168167918,23
23500,Moñitos,9.24527627335,-76.1293957384,23
23555,Planeta Rica,8.40820221055,-75.5832417103,23
23570,Pueblo Nuevo,8.50400390305,-75.5079697769,23
23574,Puerto Escondido,9.00537056386,-76.2604107447,23
23580,Puerto Libertador,7.88883325281,-75.6718011007,23
23586,Purísima de La Concepción,9.23929988718,-75.7248856036,23
23660,Sahagún,8.94312756605,-75.4459201696,23
23670,San Andrés Sotavento,9.14515876439,-75.5088929562,23
23672,San Antero,9.37621656532,-75.7607741431,23
23675,San Bernardo del Viento,9.35228972856,-75.9547986436,23
23678,San Carlos,8.7991072141,-75.698841723,23
23682,San José de Uré,7.78718605251,-75.5331291795,23
23686,San Pelayo,8.95800878711,-75.8351254915,23
23807,Tierralta,8.17037997285,-76.0596965689,23
23815,Tuchín,9.18656992554,-75.5538706654,23
23855,Valencia,8.25501643828,-76.150720786,23
25001,Agua de Dios,4.37531467846,-74.6692192503,25
25019,Albán,4.87802613952,-74.4382648986,25
25035,Anapoima,4.562955419,-74.5285181395,25
25040,Anolaima,4.76169908987,-74.4638356057,25
25053,Arbeláez,4.27248220101,-74.4148233831,25
25086,Beltrán,4.80281214522,-74.7418022426,25
25095,Bituima,4.87224216957,-74.5396180099,25
25099,Bojacá,4.73720453576,-74.3445936942,25
25120,Cabrera,3.98514461399,-74.4845451143,25
25123,Cachipay,4.73095518422,-74.4357007521,25
25126,Cajicá,4.92081005268,-74.0234537112,25
25148,Caparrapí,5.34794115431,-74.4911179964,25
25151,Cáqueza,4.4040950188,-73.9464770211,25
25154,Carmen de Carupa,5.34911594802,-73.901570514,25
25168,Chaguaní,4.9489152926,-74.5934553124,25
25175,Chía,4.86606490054,-74.0503469604,25
25178,Chipaque,4.44267057023,-74.0448735948,25
25181,Choachí,4.52704366102,-73.9228969985,25
25183,Chocontá,5.14522357379,-73.6835259612,25
25200,Cogua,5.06184103042,-73.9784922543,25
25214,Cota,4.81298461,-74.1027271672,25
25224,Cucunubá,5.24976706731,-73.7662193049,25
25245,El Colegio,4.57835941509,-74.4426667684,25
25258,El Peñón,5.24882650548,-74.2901958765,25
25260,El Rosal,4.85053609442,-74.2630068618,25
25269,Facatativá,4.81303164667,-74.3502169563,25
25279,Fómeque,4.48547472611,-73.8925231,25
25281,Fosca,4.33910044417,-73.9390162392,25
25286,Funza,4.71038172914,-74.2014894559,25
25288,Fúquene,5.40403277371,-73.7958567831,25
25290,Fusagasugá,4.33667468248,-74.3754601635,25
25293,Gachalá,4.69357747191,-73.5201588297,25
25295,Gachancipá,4.99091874874,-73.8734668101,25
25297,Gachetá,4.81641129086,-73.6363761477,25
25299,Gama,4.76334094534,-73.6110316368,25
25307,Girardot,4.31307939531,-74.7977961492,25
25312,Granada,4.51976536572,-74.3507638172,25
25317,Guachetá,5.38374153344,-73.6870945845,25
25320,Guaduas,5.07187008998,-74.6029553866,25
25322,Guasca,4.86671913331,-73.8771423949,25
25324,Guataquí,4.5174185796,-74.7899684165,25
25326,Guatavita,4.93513630968,-73.8329037894,25
25328,Guayabal de Síquima,4.87796944798,-74.4674372775,25
25335,Guayabetal,4.21529724505,-73.8150933246,25
25339,Gutiérrez,4.25467590551,-74.0030457779,25
25368,Jerusalén,4.56230969976,-74.6954162724,25
25372,Junín,4.79038167706,-73.6629251148,25
25377,La Calera,4.72138578652,-73.967966495,25
25386,La Mesa,4.63104312817,-74.4615492187,25
25394,La Palma,5.35881843551,-74.3910209321,25
25398,La Peña,5.19896214326,-74.3940946971,25
25402,La Vega,4.993079959,-74.331153833,25
25407,Lenguazaque,5.30614737724,-73.7114939184,25
25426,Machetá,5.08019042488,-73.6083234775,25
25430,Madrid,4.73273240481,-74.2637266314,25
25436,Manta,5.00905719083,-73.5404981602,25
25438,Medina,4.50661521497,-73.3491229581,25
25473,Mosquera,4.70701024824,-74.2193416046,25
25483,Nariño,4.39983661649,-74.8247329958,25
25486,Nemocón,5.0687018248,-73.8778894768,25
25488,Nilo,4.30580601104,-74.6199683585,25
25489,Nimaima,5.12602571317,-74.3860115955,25
25491,Nocaima,5.06946324832,-74.3791125286,25
25506,Venecia,4.0889533173,-74.4781884861,25
25513,Pacho,5.13694532224,-74.156116064,25
25518,Paime,5.37048460317,-74.1522155939,25
25524,Pandi,4.19039063967,-74.4866421835,25
25530,Paratebueno,4.37483210325,-73.2128246502,25
25535,Pasca,4.30905937901,-74.3024837134,25
25572,Puerto Salgar,5.46542650967,-74.6537031753,25
25580,Pulí,4.68179462875,-74.7144742699,25
25592,Quebradanegra,5.11806886067,-74.4801450411,25
25594,Quetame,4.32982614634,-73.863113968,25
25596,Quipile,4.74480125713,-74.5337016265,25
25599,Apulo,4.52034489324,-74.5938056203,25
25612,Ricaurte,4.28211362022,-74.7728657999,25
25645,San Antonio del Tequendama,4.61613464307,-74.3514505895,25
25649,San Bernardo,4.1794285861,-74.422961919,25
25653,San Cayetano,,,25
25658,San Francisco,4.97291953172,-74.2896710065,25
25662,San Juan de Rioseco,4.84757915971,-74.6219134166,25
25718,Sasaima,4.96216463559,-74.4326283935,25
25736,Sesquilé,5.04472822375,-73.7961289492,25
25740,Sibaté,4.49261081381,-74.2578772349,25
25743,Silvania,4.3819448056,-74.4055246172,25
25745,Simijaca,5.5054287938,-73.8503228188,25
25754,Soacha,4.57939176705,-74.2154309452,25
25758,Sopó,4.91539965901,-73.9433295095,25
25769,Subachoque,4.92907887681,-74.1727096099,25
25772,Suesca,5.1035175118,-73.7982887059,25
25777,Supatá,5.06161647674,-74.2354038495,25
25779,Susa,5.45486633706,-73.8140048231,25
25781,Sutatausa,5.24748742315,-73.853153077,25
25785,Tabio,4.91720363832,-74.0961796864,25
25793,Tausa,5.19655208391,-73.8864782256,25
25797,Tena,4.65532786239,-74.3895411831,25
25799,Tenjo,4.87195981007,-74.1439551406,25
25805,Tibacuy,4.34859760533,-74.4526612198,25
25807,Tibirita,5.05227733692,-73.5045147407,25
25815,Tocaima,4.45927226504,-74.6363056249,25
25817,Tocancipá,4.96478385194,-73.9120940816,25
25823,Topaipí,5.33622359875,-74.3006326154,25
25839,Ubalá,4.74752288166,-73.5315000926,25
25841,Ubaque,4.4837999031,-73.9334633747,25
25843,Villa de San Diego de Ubaté,5.30754135963,-73.814345661,25
25845,Une,4.40245072334,-74.0251807261,25
25851,Útica,5.19058902078,-74.4831194836,25
25862,Vergara,5.11730960751,-74.3463679542,25
25867,Vianí,4.87520248858,-74.5613311936,25
25871,Villagómez,5.27302546567,-74.1951478206,25
25873,Villapinzón,5.2164390104,-73.5953530971,25
25875,Villeta,5.01279238093,-74.4697042298,25
25878,Viotá,4.43935379121,-74.5231620222,25
25885,Yacopí,5.45928242265,-74.3380248611,25
25898,Zipacón,4.75992897105,-74.3795933564,25
25899,Zipaquirá,5.02547142431,-73.9944757558,25
27001,Quibdó,,,27
27006,Acandí,8.51140193491,-77.2800957148,27
27025,Alto Baudó,,,27
27050,Atrato,,,27
27073,Bagadó,5.41055568413,-76.4152936715,27
27075,Bahía Solano,,,27
27077,Bajo Baudó,,,27
27099,Bojayá,,,27
27135,El Cantón del San Pablo,,,27
27150,Carmen del Darién,,,27
27160,Cértegui,5.37158958934,-76.6080268196,27
27205,Condoto,5.09100466095,-76.6506792768,27
27245,El Carmen de Atrato,5.89975011243,-76.1422304494,27
27250,El Litoral del San Juan,,,27
27361,Istmina,5.15394631811,-76.6851798282,27
27372,Juradó,7.10361916064,-77.7627510362,27
27413,Lloró,5.49791739086,-76.5450652111,27
27425,Medio Atrato,,,27
27430,Medio Baudó,,,27
27450,Medio San Juan,,,27
27491,Nóvita,4.95606296389,-76.609467281,27
27495,Nuquí,5.70952628172,-77.265866996,27
27580,Río Iró,,,27
27600,Río Quito,,,27
27615,Riosucio,7.43663369807,-77.1131097247,27
27660,San José del Palmar,4.89759308,-76.232848825,27
27745,Sipí,4.65120437592,-76.6444041851,27
27787,Tadó,5.26482627108,-76.5584839714,27
27800,Unguía,8.04406133438,-77.0925373837,27
27810,Unión Panamericana,,,27
41001,Neiva,2.93555887476,-75.2777314808,41
41006,Acevedo,1.80526386823,-75.8885349597,41
41013,Agrado,2.259730156,-75.7719044253,41
41016,Aipe,3.22359766887,-75.2390312259,41
41020,Algeciras,2.52244696827,-75.3153713579,41
41026,Altamira,2.06371185583,-75.7883602228,41
41078,Baraya,3.15255100755,-75.0544887925,41
41132,Campoalegre,2.6868370205,-75.325759412,41
41206,Colombia,3.37697664839,-74.8028152505,41
41244,Elías,2.01270035981,-75.9380188082,41
41298,Garzón,2.1964533881,-75.6270510273,41
41306,Gigante,2.38403102318,-75.5476811212,41
41319,Guadalupe,2.0241600111,-75.7570381788,41
41349,Hobo,2.58082594244,-75.4477305142,41
41357,Íquira,2.64935228705,-75.6345024698,41
41359,Isnos,,,41
41378,La Argentina,2.19824600615,-75.9797673085,41
41396,La Plata,2.3896474978,-75.8914521307,41
41483,Nátaga,2.54535125354,-75.8087812875,41
41503,Oporapa,2.02505692943,-75.9951786162,41
41518,Paicol,2.44954939456,-75.7729935935,41
41524,Palermo,2.88937485898,-75.4348239701,41
41530,Palestina,1.72344447572,-76.1330745868,41
41548,Pital,2.26668106868,-75.8040001118,41
41551,Pitalito,1.85297434352,-76.0490044984,41
41615,Rivera,2.77757018071,-75.258550208,41
41660,Saladoblanco,1.99319375367,-76.0447691689,41
41668,San Agustín,1.8810855128,-76.2703587983,41
41676,Santa María,2.93974915231,-75.5861244534,41
41770,Suaza,1.97584502137,-75.7950572711,41
41791,Tarqui,2.11132341997,-75.8235763181,41
41797,Tesalia,2.48605278998,-75.7298384859,41
41799,Tello,3.06753684585,-75.1387731609,41
41801,Teruel,2.74097042738,-75.5670364688,41
41807,Timaná,1.97422503882,-75.9320853384,41
41872,Villavieja,3.21883156581,-75.2171038079,41
41885,Yaguará,2.66469363692,-75.5180231181,41
44001,Riohacha,11.5287502128,-72.9114873118,44
44035,Albania,11.1516112258,-72.6123282482,44
44078,Barrancas,10.9586657579,-72.7935757813,44
44090,Dibulla,11.2715687878,-73.3076206855,44
44098,Distracción,10.8984720802,-72.8873913777,44
44110,El Molino,10.6535029819,-72.9267422648,44
44279,Fonseca,10.8866535788,-72.8462546857,44
44378,Hatonuevo,11.0687421081,-72.7590172472,44
44420,La Jagua del Pilar,10.5116713993,-73.0725613221,44
44430,Maicao,11.3783279454,-72.2419044542,44
44560,Manaure,11.7739428149,-72.4395863069,44
44650,San Juan del Cesar,10.7695782636,-73.0005931272,44
44847,Uribia,11.7146470766,-72.2647599261,44
44855,Urumita,10.5601686746,-73.0125081065,44
44874,Villanueva,10.6088113359,-72.9776225919,44
47001,Santa Marta,11.2047725963,-74.2002109893,47
47030,Algarrobo,10.1880372898,-74.061131388,47
47053,Aracataca,10.5897988592,-74.1867609537,47
47058,Ariguaní,,,47
47161,Cerro de San Antonio,10.3256533075,-74.8684730704,47
47170,Chibolo,10.0268400946,-74.6231370766,47
47189,Ciénaga,11.0066586077,-74.2412855651,47
47205,Concordia,10.2573102662,-74.833031377,47
47245,El Banco,9.0087359751,-73.9742847149,47
47258,El Piñón,10.4030943537,-74.8232919445,47
47268,El Retén,10.6106681998,-74.2684546741,47
47288,Fundación,10.5140917977,-74.1913417387,47
47318,Guamal,9.14438638111,-74.2236997384,47
47460,Nueva Granada,,,47
47541,Pedraza,10.1882048875,-74.9154587828,47
47545,Pijiño del Carmen,,,47
47551,Pivijay,10.4606939662,-74.6135180767,47
47555,Plato,9.79677054749,-74.784684214,47
47570,Puebloviejo,10.9948385981,-74.2824768666,47
47605,Remolino,10.7021709717,-74.716139312,47
47660,Sabanas de San Ángel,,,47
47675,Salamina,10.4912293928,-74.7941894058,47
47692,San Sebastián de Buenavista,9.24078172832,-74.3516789515,47
47703,San Zenón,9.24506385456,-74.4989888678,47
47707,Santa Ana,9.32429335632,-74.5668440377,47
47720,Santa Bárbara de Pinto,9.4322584701,-74.7046839218,47
47745,Sitionuevo,10.775407167,-74.7201694573,47
47798,Tenerife,9.8977882091,-74.8607737651,47
47960,Zapayán,,,47
47980,Zona Bananera,,,47
50001,Villavicencio,4.1238593011,-73.624562528,50
50006,Acacías,3.99012009704,-73.7659360698,50
50110,Barranca de Upía,4.56720152053,-72.9632757114,50
50124,Cabuyaro,4.28592465004,-72.7919811358,50
50150,Castilla la Nueva,3.82804244894,-73.6881308587,50
50223,Cubarral,3.79361967387,-73.8377386881,50
50226,Cumaral,4.26953744789,-73.4861069057,50
50245,El Calvario,4.35261856617,-73.7133268969,50
50251,El Castillo,3.56383333473,-73.7940123336,50
50270,El Dorado,3.7399977854,-73.8350177222,50
50287,Fuente de Oro,3.46287020088,-73.6179805402,50
50313,Granada,3.5466952856,-73.7057158517,50
50318,Guamal,3.88014002777,-73.7699625676,50
50325,Mapiripán,2.89643885969,-72.1356448716,50
50330,Mesetas,3.38325958558,-74.0443712626,50
50350,La Macarena,2.17821444079,-73.7870674795,50
50370,Uribe,3.23965331351,-74.3515437091,50
50400,Lejanías,3.52474093193,-74.0231951223,50
50450,Puerto Concordia,2.62308359227,-72.7600452582,50
50568,Puerto Gaitán,4.314485152,-72.083078729,50
50573,Puerto López,4.09340699377,-72.9574366102,50
50577,Puerto Lleras,3.27211893514,-73.3738481508,50
50590,Puerto Rico,2.93974329234,-73.2065146907,50
50606,Restrepo,4.26072972714,-73.5646064827,50
50680,San Carlos de Guaroa,3.71053695717,-73.2414110088,50
50683,San Juan de Arama,3.37372791392,-73.8758311729,50
50686,San Juanito,4.45818278703,-73.6767015182,50
50689,San Martín,3.70188012803,-73.6956173593,50
50711,Vistahermosa,3.1256671671,-73.7510280336,50
52001,Pasto,,,52
52019,Albán,,,52
52022,Aldana,0.882181786542,-77.7003576715,52
52036,Ancuya,1.2633075786,-77.5145167557,52
52051,Arboleda,,,52
52079,Barbacoas,1.67144343524,-78.1375768702,52
52083,Belén,1.59563639683,-77.0156674722,52
52110,Buesaco,1.38144599558,-77.1564755847,52
52203,Colón,,,52
52207,Consacá,1.20762916553,-77.4657291646,52
52210,Contadero,0.910459437261,-77.5494126615,52
52215,Córdoba,0.854572506919,-77.5178993163,52
52224,Cuaspud Carlosama,,,52
52227,Cumbal,0.906185196967,-77.7922761776,52
52233,Cumbitara,1.6468385371,-77.5781428707,52
52240,Chachagüí,1.36032207453,-77.2816959,52
52250,El Charco,2.48008913955,-78.1095349747,52
52254,El Peñol,1.45356662393,-77.4385211287,52
52256,El Rosario,1.74529986473,-77.334167969,52
52258,El Tablón de Gómez,1.42704940171,-77.0967278598,52
52260,El Tambo,1.4076491661,-77.3902057813,52
52287,Funes,1.00113044411,-77.4489750806,52
52317,Guachucal,0.959739983939,-77.7315945908,52
52320,Guaitarilla,1.12963027843,-77.5496855022,52
52323,Gualmatán,0.919672117789,-77.5686640969,52
52352,Iles,0.969202404611,-77.5209761227,52
52354,Imués,1.05513327782,-77.4961681198,52
52356,Ipiales,0.827735060636,-77.6463999012,52
52378,La Cruz,1.60134086722,-76.9705345817,52
52381,La Florida,1.299192798,-77.406436071,52
52385,La Llanada,1.47264363566,-77.5807206702,52
52390,La Tola,2.3982099715,-78.1903918916,52
52399,La Unión,1.60025484037,-77.1311540017,52
52405,Leiva,1.93451165112,-77.3062024933,52
52411,Linares,1.35078991287,-77.5237925292,52
52418,Los Andes,,,52
52427,Magüí,,,52
52435,Mallama,,,52
52473,Mosquera,2.5071274382,-78.4529721975,52
52480,Nariño,1.28897586144,-77.3579742048,52
52490,Olaya Herrera,,,52
52506,Ospina,1.05849067089,-77.5660692089,52
52520,Francisco Pizarro,,,52
52540,Policarpa,1.62734987378,-77.458755671,52
52560,Potosí,0.806342052071,-77.5727915178,52
52565,Providencia,1.2376869879,-77.596587745,52
52573,Puerres,0.885125369631,-77.5042106322,52
52585,Pupiales,0.867138527,-77.63350443,52
52612,Ricaurte,1.21293165479,-77.9954468866,52
52621,Roberto Payán,,,52
52678,Samaniego,1.33535141458,-77.5944553745,52
52683,Sandoná,1.28314414356,-77.4730451357,52
52685,San Bernardo,1.51370439814,-77.0475260871,52
52687,San Lorenzo,1.50333968093,-77.2152397164,52
52693,San Pablo,1.66942879125,-77.0139256051,52
52694,San Pedro de Cartago,1.55148084166,-77.1194170341,52
52696,Santa Bárbara,,,52
52699,Santacruz,,,52
52720,Sapuyes,1.03752383941,-77.6202980414,52
52786,Taminango,1.57004727576,-77.2802201494,52
52788,Tangua,1.0948780282,-77.3926919626,52
52835,San Andrés de Tumaco,,,52
52838,Túquerres,1.08519299564,-77.6168833378,52
52885,Yacuanquer,1.11579938415,-77.4004765826,52
54001,San José de Cúcuta,7.90558402069,-72.5080651202,54
54003,Ábrego,8.08178182803,-73.2217345921,54
54051,Arboledas,7.64297110663,-72.7988785326,54
54099,Bochalema,7.61216882308,-72.6470372457,54
54109,Bucarasica,8.04116298794,-72.8679545898,54
54125,Cácota,7.26870600207,-72.6420639099,54
54128,Cáchira,7.74089485038,-73.0487542769,54
54172,Chinácota,7.60295918667,-72.601158456,54
54174,Chitagá,7.1381248415,-72.665435191,54
54206,Convención,8.47037222338,-73.3372098547,54
54223,Cucutilla,7.53899847059,-72.7725742725,54
54239,Durania,7.71477918347,-72.6586018005,54
54245,El Carmen,8.51059912297,-73.4467003188,54
54250,El Tarra,8.57676937385,-73.0948482229,54
54261,El Zulia,7.93817417215,-72.6046120661,54
54313,Gramalote,0.0,0.0,54
54344,Hacarí,8.32170628125,-73.1459704225,54
54347,Herrán,7.50654351972,-72.4835192832,54
54377,Labateca,7.29833227871,-72.4958768009,54
54385,La Esperanza,7.63999106968,-73.3278977166,54
54398,La Playa,8.21263296004,-73.2386418368,54
54405,Los Patios,7.83324937685,-72.5057141873,54
54418,Lourdes,7.94542916211,-72.8323786178,54
54480,Mutiscua,7.30027741166,-72.7471428991,54
54498,Ocaña,8.24746216282,-73.355814925,54
54518,Pamplona,7.37284757284,-72.64768472,54
54520,Pamplonita,7.43674631412,-72.6392033235,54
54553,Puerto Santander,8.36094479506,-72.4103128587,54
54599,Ragonvalia,7.57786103871,-72.4767028257,54
54660,Salazar,,,54
54670,San Calixto,8.40242190738,-73.2085273768,54
54673,San Cayetano,7.87553332058,-72.6254110291,54
54680,Santiago,7.86567709707,-72.7162440314,54
54720,Sardinata,8.08202065536,-72.8007580493,54
54743,Silos,7.20479131268,-72.7570633326,54
54800,Teorama,8.43812602697,-73.287073938,54
54810,Tibú,8.63899279345,-72.7342132578,54
54820,Toledo,7.30770174274,-72.4819073532,54
54871,Villa Caro,7.91428193861,-72.9736512466,54
54874,Villa del Rosario,7.84748634411,-72.4700680064,54
63001,Armenia,4.535987208,-75.6807545438,63
63111,Buenavista,4.36002504159,-75.7395664635,63
63130,Calarcá,4.52148797904,-75.6455330683,63
63190,Circasia,4.61779473259,-75.6365262734,63
63212,Córdoba,4.39248649385,-75.6878697204,63
63272,Filandia,4.67414703386,-75.6586823883,63
63302,Génova,4.20651089858,-75.790631528,63
63401,La Tebaida,4.45365278508,-75.786460159,63
63470,Montenegro,4.56505578418,-75.7498287033,63
63548,Pijao,4.33504179687,-75.7033166279,63
63594,Quimbaya,4.62438412181,-75.7650742652,63
63690,Salento,4.63715372291,-75.5708458112,63
66001,Pereira,4.80532287092,-75.7190152322,66
66045,Apía,5.10652456009,-75.942359483,66
66075,Balboa,4.94900740381,-75.9586806381,66
66088,Belén de Umbría,5.20064515187,-75.868216089,66
66170,Dosquebradas,4.83402887527,-75.6761693197,66
66318,Guática,5.31536038013,-75.7990077966,66
66383,La Celia,5.00286711372,-76.0030868756,66
66400,La Virginia,4.89654777308,-75.8802026174,66
66440,Marsella,4.93556204249,-75.7385816147,66
66456,Mistrató,5.29706285959,-75.8828627404,66
66572,Pueblo Rico,5.22191328206,-76.0306678019,66
66594,Quinchía,5.34044152422,-75.7304104711,66
66682,Santa Rosa de Cabal,4.87640374593,-75.6234918103,66
66687,Santuario,5.07493802723,-75.9645220611,66
68001,Bucaramanga,7.11626842734,-73.1325976221,68
68013,Aguada,6.16224498637,-73.5232262196,68
68020,Albania,5.7589853512,-73.9140635028,68
68051,Aratoca,6.694438882,-73.0178497692,68
68077,Barbosa,5.93261018035,-73.6159986977,68
68079,Barichara,6.63423130708,-73.2230998455,68
68081,Barrancabermeja,7.06496573153,-73.8499567312,68
68092,Betulia,6.89952350256,-73.2836713462,68
68101,Bolívar,5.98895175043,-73.7713434117,68
68121,Cabrera,6.59226462461,-73.2465030679,68
68132,California,7.34788166378,-72.9463686609,68
68147,Capitanejo,6.52741643996,-72.6954661576,68
68152,Carcasí,6.6287276598,-72.627083427,68
68160,Cepitá,6.75351236838,-72.9735370615,68
68162,Cerrito,6.84027556538,-72.6950486627,68
68167,Charalá,6.28434433944,-73.1468716584,68
68169,Charta,7.28081908866,-72.9687942408,68
68176,Chimá,6.34435038365,-73.3737319916,68
68179,Chipatá,6.06252035758,-73.6371138841,68
68190,Cimitarra,6.32063022524,-73.9525715248,68
68207,Concepción,6.76883643116,-72.694595635,68
68209,Confines,6.35733168284,-73.2405558524,68
68211,Contratación,6.29055860254,-73.4744250645,68
68217,Coromoro,6.29499521987,-73.0408156038,68
68229,Curití,6.6051082188,-73.0693896277,68
68235,El Carmen de Chucurí,6.697907475,-73.511267745,68
68245,El Guacamayo,6.24512015463,-73.496894218,68
68250,El Peñón,6.05505062658,-73.8156489155,68
68255,El Playón,7.47071669899,-73.2028762556,68
68264,Encino,6.13741450884,-73.0987358142,68
68266,Enciso,6.66803370305,-72.6996509127,68
68271,Florián,5.80465898835,-73.9714235605,68
68276,Floridablanca,7.07236450273,-73.0990307075,68
68296,Galán,6.638415125,-73.2877642173,68
68298,Gámbita,5.94597839459,-73.3441797754,68
68307,Girón,7.07052391696,-73.1667133582,68
68318,Guaca,6.87656058399,-72.8563231479,68
68320,Guadalupe,6.24584325297,-73.4192939265,68
68322,Guapotá,6.30858560635,-73.3206973026,68
68324,Guavatá,5.95413334223,-73.7008028162,68
68327,Güepsa,6.02517506342,-73.5748541849,68
68344,Hato,6.543874338,-73.3082704431,68
68368,Jesús María,5.87654384542,-73.7833343323,68
68370,Jordán,,,68
68377,La Belleza,5.85955359883,-73.9656247433,68
68385,Landázuri,6.21874730469,-73.8110930176,68
68397,La Paz,6.17850468664,-73.5895994589,68
68406,Lebrija,7.11335571687,-73.2195525933,68
68418,Los Santos,6.75517251979,-73.1026597725,68
68425,Macaravita,6.50658059488,-72.5931111569,68
68432,Málaga,6.70305452003,-72.7323808831,68
68444,Matanza,7.32318040602,-73.0155652728,68
68464,Mogotes,6.47521108164,-72.9698135047,68
68468,Molagavita,6.6743545443,-72.8094754311,68
68498,Ocamonte,6.33999508462,-73.1225558791,68
68500,Oiba,6.26517211387,-73.2997849665,68
68502,Onzaga,6.34409903428,-72.8167547282,68
68522,Palmar,6.53778291763,-73.2910906977,68
68524,Palmas del Socorro,6.40613939878,-73.287762166,68
68533,Páramo,6.41659506947,-73.1703905871,68
68547,Piedecuesta,6.99735677431,-73.0545933904,68
68549,Pinchote,6.53206093514,-73.1729190191,68
68572,Puente Nacional,5.87796256489,-73.6781328396,68
68573,Puerto Parra,6.65080789008,-74.0560908372,68
68575,Puerto Wilches,7.349066143,-73.899334022,68
68615,Rionegro,7.26500895024,-73.150142083,68
68655,Sabana de Torres,7.39191179389,-73.4990518794,68
68669,San Andrés,6.81150917867,-72.8489688078,68
68673,San Benito,6.12666534773,-73.5091199864,68
68679,San Gil,6.55295530633,-73.1351665257,68
68682,San Joaquín,6.42755440169,-72.8676409519,68
68684,San José de Miranda,6.6589966561,-72.7336238268,68
68686,San Miguel,6.57562710592,-72.6441554258,68
68689,San Vicente de Chucurí,6.88037882713,-73.4110187818,68
68705,Santa Bárbara,6.99050924374,-72.9073349905,68
68720,Santa Helena del Opón,6.33964198008,-73.6167961577,68
68745,Simacota,6.44346957242,-73.3373665723,68
68755,Socorro,6.46385144732,-73.2611960328,68
68770,Suaita,6.10353145,-73.438416356,68
68773,Sucre,5.91874038228,-73.79097771,68
68780,Suratá,7.3665825175,-72.9842351772,68
68820,Tona,7.20140058159,-72.967024817,68
68855,Valle de San José,6.44778897572,-73.1437389075,68
68861,Vélez,6.010953449,-73.666299069,68
68867,Vetas,7.30980555024,-72.8710436133,68
68872,Villanueva,6.6700764461,-73.1743072555,68
68895,Zapatoca,6.81433905181,-73.2679103601,68
70001,Sincelejo,9.30233021687,-75.395481772,70
70110,Buenavista,9.31985711931,-74.9730193151,70
70124,Caimito,8.78932537693,-75.1171440547,70
70204,Coloso,,,70
70215,Corozal,9.31910061656,-75.2931493701,70
70221,Coveñas,9.4028636807,-75.6800839749,70
70230,Chalán,9.54535812429,-75.3126950363,70
70233,El Roble,9.10066970519,-75.1984347707,70
70235,Galeras,9.15967339965,-75.0494186572,70
70265,Guaranda,8.464847043,-74.538345419,70
70400,La Unión,8.85397531911,-75.2760559341,70
70418,Los Palmitos,9.3802289505,-75.268750942,70
70429,Majagual,8.54071408117,-74.6281041912,70
70473,Morroa,9.33132173665,-75.306200083,70
70508,Ovejas,9.52668815702,-75.2290829562,70
70523,Palmito,9.33310204871,-75.5412570386,70
70670,Sampués,9.18312851604,-75.3802942192,70
70678,San Benito Abad,8.92996976102,-75.0311600711,70
70702,San Juan de Betulia,,,70
70708,San Marcos,8.66194596532,-75.134084767,70
70713,San Onofre,9.7369328609,-75.5230283613,70
70717,San Pedro,9.39596570901,-75.0634845353,70
70742,San Luis de Sincé,,,70
70771,Sucre,8.81174045357,-74.7232228452,70
70820,Santiago de Tolú,9.52547457425,-75.5811043366,70
70823,Tolú Viejo,9.45183874964,-75.4408214257,70
73001,Ibagué,4.43280938914,-75.1953679078,73
73024,Alpujarra,3.39173454082,-74.932858783,73
73026,Alvarado,4.56734522829,-74.9535551796,73
73030,Ambalema,4.78263242067,-74.7644428804,73
73043,Anzoátegui,4.63175549718,-75.093777187,73
73055,Armero,5.03067791424,-74.8844145941,73
73067,Ataco,3.59063460119,-75.3825339259,73
73124,Cajamarca,4.436677041,-75.435485263,73
73148,Carmen de Apicalá,4.15094359506,-74.7163719929,73
73152,Casabianca,5.07846279395,-75.1209613635,73
73168,Chaparral,3.72306834875,-75.4807434103,73
73200,Coello,4.28728335548,-74.8984673202,73
73217,Coyaima,3.79803620302,-75.193878839,73
73226,Cunday,4.05925948571,-74.6922267118,73
73236,Dolores,3.53903159826,-74.8968518333,73
73268,Espinal,,,73
73270,Falan,5.12310402379,-74.9530204607,73
73275,Flandes,4.2763717138,-74.8187677213,73
73283,Fresno,5.15363945469,-75.0356196095,73
73319,Guamo,4.03100475679,-74.9681289601,73
73347,Herveo,5.08023410848,-75.1771319171,73
73349,Honda,5.2015089,-74.741577974,73
73352,Icononzo,4.17643908974,-74.5319791006,73
73408,Lérida,4.86202531088,-74.9106356889,73
73411,Líbano,4.92041843293,-75.0619532821,73
73443,Mariquita,5.19969320383,-74.8892907058,73
73449,Melgar,4.20394596681,-74.6409314721,73
73461,Murillo,4.87434134976,-75.1710222819,73
73483,Natagaima,3.62438908901,-75.0931111288,73
73504,Ortega,3.93491661562,-75.2226023939,73
73520,Palocabildo,5.1208856555,-75.02222013,73
73547,Piedras,4.54390984155,-74.8780727204,73
73555,Planadas,3.19765191111,-75.6439602657,73
73563,Prado,3.75101224596,-74.9274588097,73
73585,Purificación,3.8572509421,-74.9353707228,73
73616,Rioblanco,3.52986047716,-75.6443757976,73
73622,Roncesvalles,4.01159480735,-75.6059994575,73
73624,Rovira,4.2389330111,-75.2408706668,73
73671,Saldaña,3.92970073078,-75.0167694661,73
73675,San Antonio,3.9140451612,-75.4799125909,73
73678,San Luis,4.13371813034,-75.0957912296,73
73686,Santa Isabel,4.71359930225,-75.0979346338,73
73770,Suárez,4.04888384846,-74.831889635,73
73854,Valle de San Juan,4.19749423898,-75.1156695836,73
73861,Venadillo,4.71796619302,-74.9291695928,73
73870,Villahermosa,5.03045611726,-75.1177255467,73
73873,Villarrica,3.93692369495,-74.6002427195,73
76001,Cali,,,76
76020,Alcalá,4.67498960531,-75.779812612,76
76036,Andalucía,4.17172541604,-76.1679219749,76
76041,Ansermanuevo,4.79492075239,-75.9919821845,76
76054,Argelia,4.72695251407,-76.1199028275,76
76100,Bolívar,4.33784247096,-76.1835731619,76
76109,Buenaventura,3.87580334574,-77.0117477782,76
76111,Guadalajara de Buga,3.90082284434,-76.2989614887,76
76113,Bugalagrande,4.20833111175,-76.1568083286,76
76122,Caicedonia,4.33460564018,-75.8303183393,76
76126,Calima,,,76
76130,Candelaria,3.4077643196,-76.3464295384,76
76147,Cartago,4.758755097,-75.942264044,76
76233,Dagua,3.65666318922,-76.6889953357,76
76243,El Águila,4.90602658761,-76.0427931347,76
76246,El Cairo,4.76088330419,-76.2216047795,76
76248,El Cerrito,3.68425970818,-76.3117262705,76
76250,El Dovio,4.51045798809,-76.2370824654,76
76275,Florida,3.3239196011,-76.234503193,76
76306,Ginebra,3.72418135814,-76.2680666157,76
76318,Guacarí,3.76290954608,-76.3313674083,76
76364,Jamundí,3.25932906918,-76.5391224672,76
76377,La Cumbre,3.64944411346,-76.5679334087,76
76400,La Unión,4.53378338837,-76.0996048731,76
76403,La Victoria,4.52360126987,-76.0365293203,76
76497,Obando,4.57572205449,-75.9746885479,76
76520,Palmira,3.53234954501,-76.2985815873,76
76563,Pradera,3.41982721892,-76.2418197435,76
76606,Restrepo,3.82134249406,-76.5231163453,76
76616,Riofrío,4.15690638946,-76.2883093841,76
76622,Roldanillo,4.41359519174,-76.1522876963,76
76670,San Pedro,3.99499221389,-76.2285395519,76
76736,Sevilla,4.27071412891,-75.9316229697,76
76823,Toro,4.60808704867,-76.0768506524,76
76828,Trujillo,4.21205460862,-76.3188096264,76
76834,Tuluá,4.08526067539,-76.1977002572,76
76845,Ulloa,4.7036280475,-75.7378129291,76
76863,Versalles,4.57502307699,-76.1992067017,76
76869,Vijes,3.69858937984,-76.4419648892,76
76890,Yotoco,3.8612150819,-76.3824738774,76
76892,Yumbo,3.54003276229,-76.4992290977,76
76895,Zarzal,4.39262199427,-76.0708484414,76
81001,Arauca,7.07390170095,-70.748009803,81
81065,Arauquita,7.02698088637,-71.4267498586,81
81220,Cravo Norte,6.30345968824,-70.2035859163,81
81300,Fortul,6.79707707295,-71.7685562393,81
81591,Puerto Rondón,6.28146282154,-71.1033929512,81
81736,Saravena,6.95386030424,-71.8723328706,81
81794,Tame,6.45344199261,-71.7537617572,81
85001,Yopal,5.32761201728,-72.3969155417,85
85010,Aguazul,5.17269004261,-72.5463004198,85
85015,Chámeza,5.21431249951,-72.8702376042,85
85125,Hato Corozal,6.15617263862,-71.7649240225,85
85136,La Salina,6.12768708902,-72.3349588132,85
85139,Maní,4.81682498993,-72.2813966623,85
85162,Monterrey,4.87684630992,-72.8950348515,85
85225,Nunchía,5.63666390187,-72.1950710689,85
85230,Orocué,4.79026959264,-71.3385186268,85
85250,Paz de Ariporo,5.88003712521,-71.8909234158,85
85263,Pore,5.72773022764,-71.9928594902,85
85279,Recetor,5.22949241387,-72.7611443018,85
85300,Sabanalarga,4.85461982071,-73.0387237641,85
85315,Sácama,6.09697473148,-72.2502768792,85
85325,San Luis de Palenque,5.42230235915,-71.7324374971,85
85400,Támara,5.82982360982,-72.161823137,85
85410,Tauramena,5.01920691152,-72.7472511701,85
85430,Trinidad,5.41221523214,-71.6633415586,85
85440,Villanueva,4.61007185165,-72.9280536201,85
86001,Mocoa,1.1525800991,-76.6515068624,86
86219,Colón,1.18982685673,-76.9723019042,86
86320,Orito,0.663818348772,-76.8730276477,86
86568,Puerto Asís,0.505047577006,-76.4972710861,86
86569,Puerto Caicedo,0.6877836264,-76.6057791692,86
86571,Puerto Guzmán,0.962923612274,-76.408521789,86
86573,Puerto Leguízamo,-0.191870260599,-74.7824713482,86
86749,Sibundoy,1.20011541585,-76.9174823545,86
86755,San Francisco,1.17421702835,-76.8792415368,86
86757,San Miguel,,,86
86760,Santiago,1.14728349518,-77.0021350607,86
86865,Valle del Guamuez,,,86
86885,Villagarzón,1.02893997049,-76.6171636979,86
88001,San Andrés,12.578137767,-81.7071295349,88
88564,Providencia,,,88
91001,Leticia,-4.19844539201,-69.9415818923,91
91263,El Encanto (CD),-1.74739132356,-73.2075569171,91
91405,La Chorrera (CD),-1.4426934013,-72.7926097298,91
91407,La Pedrera (CD),-1.319313553,-69.588421017,91
91430,La Victoria (CD),,,91
91460,Miriti - Paraná (CD),,,91
91530,Puerto Alegría (CD),-1.00567390589,-74.014459938,91
91536,Puerto Arica (CD),-2.1470396022,-71.7521861992,91
91540,Puerto Nariño,-3.7804454367,-70.3645171446,91
91669,Puerto Santander (CD),-0.621185277532,-72.3842113772,91
91798,Tarapacá (CD),-2.8900847418,-69.7417700816,91
94001,Inírida,3.86662347201,-67.9186012392,94
94343,Barrancominas (CD),3.49400987689,-69.8132480332,94
94663,Mapiripana (CD),2.812145587,-70.476253922,94
94883,San Felipe (CD),1.91304714128,-67.0677480541,94
94884,Puerto Colombia (CD),2.72646647625,-67.5667868341,94
94885,La Guadalupe (CD),,,94
94886,Cacahual (CD),3.52617006284,-67.4133116058,94
94887,Pana Pana (CD),,,94
94888,Morichal (CD),,,94
95001,San José del Guaviare,2.56608342423,-72.6390287201,95
95015,Calamar,1.96010887255,-72.6551728661,95
95025,El Retorno,2.33015845935,-72.6271855241,95
95200,Miraflores,1.3375761026,-71.9505425816,95
97001,Mitú,1.25118655571,-70.2347514774,97
97161,Carurú,1.014600462,-71.297793263,97
97511,Pacoa (CD),0.0207023436272,-71.0043443529,97
97666,Taraira,-0.568198309995,-69.6402663643,97
97777,Papunahua (CD),,,97
97889,Yavaraté (CD),0.609141827242,-69.2033361301,97
99001,Puerto Carreño,6.1868629253,-67.4869961433,99
99524,La Primavera,5.48633716237,-70.4104207997,99
99624,Santa Rosalía,5.13643185127,-70.859744312,99
99773,Cumaribo,4.44635160128,-69.7955302016,99
