,YEAR,DPTO,CODE_DPTO,MUNICIPIO,CODE_MUNICIPIO,LONGITUD,LATITUD,SUI_COUNTER,POPULATION
0,2016,AMAZONAS,91,LETICIA,91001,-69.9415818923,-4.19844539201,3,46301
1,2016,ANTIOQUIA,5,ABEJORRAL,5002,-75.4287403904,5.78930111433,2,20534
2,2016,ANTIOQUIA,5,AMAGA,5030,-75.7019483389,6.03880842381,4,29394
3,2016,ANTIOQUIA,5,AMALFI,5031,-75.0774749239,6.90967360478,1,25194
4,2016,ANTIOQUIA,5,ANDES,5034,-75.878794075,5.65676971311,5,42683
5,2016,ANTIOQUIA,5,ANGOSTURA,5038,-75.3351091186,6.88518441484,1,11486
6,2016,ANTIOQUIA,5,ANORI,5040,-75.1483449609,7.07471004137,1,17723
7,2016,ANTIOQUIA,5,APARTADO,5045,-76.6258909217,7.88325108195,8,115555
8,2016,ANTIOQUIA,5,ARBOLETES,5051,-76.4266581639,8.84991827334,1,28981
9,2016,ANTIOQUIA,5,BARBOSA,5079,-75.3316403017,6.4392260115,4,50281
10,2016,ANTIOQUIA,5,BELLO,5088,-75.5546673053,6.33406558292,28,499621
11,2016,ANTIOQUIA,5,BETANIA,5091,-75.9767139414,5.74619656152,1,10484
12,2016,ANTIOQUIA,5,BETULIA,5093,-75.9845155699,6.11525553285,1,15445
13,2016,ANTIOQUIA,5,CALDAS,5129,-75.6336168248,6.09129760323,10,76766
14,2016,ANTIOQUIA,5,CAREPA,5147,-76.653210744,7.75511548219,1,45489
15,2016,ANTIOQUIA,5,CAUCASIA,5154,-75.1982784645,7.97734097812,1,86492
16,2016,ANTIOQUIA,5,CHIGORODO,5172,-76.6812146131,7.66630069082,4,54908
17,2016,ANTIOQUIA,5,CISNEROS,5190,-75.0872051341,6.53776304826,1,9617
18,2016,ANTIOQUIA,5,CONCORDIA,5209,-75.9084535194,6.04608659615,2,21153
19,2016,ANTIOQUIA,5,COPACABANA,5212,-75.5093435119,6.34863947056,5,74957
20,2016,ANTIOQUIA,5,DONMATIAS,5237,-75.3926751288,6.48560723899,1,18332
21,2016,ANTIOQUIA,5,EBEJICO,5240,-75.7662136607,6.32605663471,1,12227
22,2016,ANTIOQUIA,5,EL BAGRE,5250,-74.7990970119,7.5975218855,3,49488
23,2016,ANTIOQUIA,5,EL CARMEN DE VIBORAL,5148,-75.3342620232,6.08347326731,3,57208
24,2016,ANTIOQUIA,5,EL SANTUARIO,5697,-75.2654679804,6.13685720436,3,34347
25,2016,ANTIOQUIA,5,ENVIGADO,5266,-75.5830089369,6.16700589298,18,218805
26,2016,ANTIOQUIA,5,FREDONIA,5282,-75.6750932516,5.9280855467,2,24143
27,2016,ANTIOQUIA,5,FRONTINO,5284,-76.1307652118,6.77606285319,1,20813
28,2016,ANTIOQUIA,5,GIRARDOTA,5308,-75.4444597681,6.37961535607,3,49613
29,2016,ANTIOQUIA,5,GOMEZ PLATA,5310,-75.2200360918,6.68327964232,1,9662
30,2016,ANTIOQUIA,5,GUARNE,5318,-75.4416535712,6.27802696108,4,52793
31,2016,ANTIOQUIA,5,GUATAPE,5321,-75.1600208818,6.23240969843,1,8068
32,2016,ANTIOQUIA,5,ITAGUI,5360,-75.6120815283,6.174929734,21,266257
33,2016,ANTIOQUIA,5,ITUANGO,5361,-75.7646752276,7.17163748398,3,26625
34,2016,ANTIOQUIA,5,LA CEJA,5376,-75.4294329272,6.02805465836,4,62185
35,2016,ANTIOQUIA,5,LA ESTRELLA,5380,-75.645190382,6.15841993,7,68483
36,2016,ANTIOQUIA,5,LA UNION,5400,-75.3608622911,5.97387113417,2,20784
37,2016,ANTIOQUIA,5,LIBORINA,5411,-75.8128326075,6.67732537607,1,10094
38,2016,ANTIOQUIA,5,MARINILLA,5440,-75.3394598367,6.17404951538,4,62194
39,2016,ANTIOQUIA,5,MEDELLIN,5001,-75.5760017134,6.24858636743,161,2351077
40,2016,ANTIOQUIA,5,MUTATA,5480,-76.4358758959,7.24287193339,2,13625
41,2016,ANTIOQUIA,5,NECOCLI,5490,-76.784574497,8.426136098,1,41016
42,2016,ANTIOQUIA,5,OLAYA,5501,-75.8118744168,6.62660499706,1,3092
43,2016,ANTIOQUIA,5,PENOL,5541,-75.2428178132,6.21945021233,2,20351
44,2016,ANTIOQUIA,5,PUERTO BERRIO,5579,-74.4099459786,6.48703921007,1,38302
45,2016,ANTIOQUIA,5,REMEDIOS,5604,-74.6980471636,7.02939076621,1,27530
46,2016,ANTIOQUIA,5,RETIRO,5607,-75.5013756659,6.06338107129,5,22486
47,2016,ANTIOQUIA,5,RIONEGRO,5615,-75.3767667557,6.1472245313,5,129753
48,2016,ANTIOQUIA,5,SABANALARGA,5628,-75.8166459364,6.85002081371,1,8881
49,2016,ANTIOQUIA,5,SABANETA,5631,-75.6155845416,6.15096981767,4,77966
50,2016,ANTIOQUIA,5,SALGAR,5642,-75.982048544,5.965640311,1,18341
51,2016,ANTIOQUIA,5,SAN JERONIMO,5656,-75.7270000843,6.44806585636,1,14912
52,2016,ANTIOQUIA,5,SAN LUIS,5660,-74.9936401255,6.04298332565,2,12993
53,2016,ANTIOQUIA,5,SAN PEDRO DE LOS MILAGROS,5664,-75.5567189241,6.46013808244,2,21226
54,2016,ANTIOQUIA,5,SAN RAFAEL,5667,-75.0279828807,6.29375698332,3,15721
55,2016,ANTIOQUIA,5,SAN ROQUE,5670,-75.0191661484,6.48594047044,2,21217
56,2016,ANTIOQUIA,5,SANTA ROSA DE OSOS,5686,-75.460740037,6.64332643406,4,35308
57,2016,ANTIOQUIA,5,SANTO DOMINGO,5690,-75.1649580592,6.47283350377,1,12535
58,2016,ANTIOQUIA,5,SEGOVIA,5736,-74.701588722,7.07963898594,1,36605
59,2016,ANTIOQUIA,5,SOPETRAN,5761,-75.7472528656,6.50099259435,1,14882
60,2016,ANTIOQUIA,5,TAMESIS,5789,-75.7143199749,5.66446916892,2,16441
61,2016,ANTIOQUIA,5,TURBO,5837,-76.7291596582,8.08911317497,9,120238
62,2016,ANTIOQUIA,5,URRAO,5847,-76.1339511488,6.31731976564,1,29631
63,2016,ANTIOQUIA,5,YARUMAL,5887,-75.4188327746,6.96387109143,3,40691
64,2016,ANTIOQUIA,5,ZARAGOZA,5895,-74.8670728872,7.48858244262,2,24233
65,2016,ARAUCA,81,ARAUCA,81001,-70.748009803,7.07390170095,9,79833
66,2016,ARAUCA,81,ARAUQUITA,81065,-71.4267498586,7.02698088637,5,46085
67,2016,ARAUCA,81,FORTUL,81300,-71.7685562393,6.79707707295,2,17303
68,2016,ARAUCA,81,SARAVENA,81736,-71.8723328706,6.95386030424,7,52248
69,2016,ARAUCA,81,TAME,81794,-71.7537617572,6.45344199261,1,40793
70,2016,ATLANTICO,8,BARANOA,8078,-74.916106093,10.7948815688,2,59622
71,2016,ATLANTICO,8,BARRANQUILLA,8001,-74.8132169683,10.9783195607,50,1167555
72,2016,ATLANTICO,8,GALAPA,8296,-74.8703439389,10.9191614915,2,56946
73,2016,ATLANTICO,8,JUAN DE ACOSTA,8372,-75.0406070886,10.8323387608,1,19923
74,2016,ATLANTICO,8,LURUACO,8421,-75.1422887632,10.6111248118,1,27047
75,2016,ATLANTICO,8,MALAMBO,8433,-74.7748637454,10.856822692,13,121589
76,2016,ATLANTICO,8,PUERTO COLOMBIA,8573,-74.851963055,11.022939949,3,46638
77,2016,ATLANTICO,8,REPELON,8606,-75.1254822303,10.4933403213,1,25143
78,2016,ATLANTICO,8,SABANAGRANDE,8634,-74.7585063109,10.7910757719,1,30705
79,2016,ATLANTICO,8,SABANALARGA,8638,-74.9210950072,10.6328326108,5,89188
80,2016,ATLANTICO,8,SANTO TOMAS,8685,-74.7577207286,10.7587230349,1,28502
81,2016,ATLANTICO,8,SOLEDAD,8758,-74.7848339582,10.9101742784,18,568201
82,2016,ATLANTICO,8,USIACURI,8849,-74.9769840969,10.742979811,1,11713
83,2016,BOGOTA,11,BOGOTA,11001,-74.106715324,4.64993705899,356,7300918
84,2016,BOLIVAR,13,ALTOS DEL ROSARIO,13030,-74.1650526808,8.79160326038,1,10572
85,2016,BOLIVAR,13,ARJONA,13052,-75.3444876588,10.256630539,4,67351
86,2016,BOLIVAR,13,CARTAGENA DE INDIAS,13001,-75.4964264795,10.3849883546,33,945316
87,2016,BOLIVAR,13,EL CARMEN DE BOLIVAR,13244,-75.1212066427,9.71861199322,2,69403
88,2016,BOLIVAR,13,MAGANGUE,13430,-74.7667304396,9.26381346247,4,129878
89,2016,BOLIVAR,13,MARIA LA BAJA,13442,-75.3007611748,9.98264680271,2,44730
90,2016,BOLIVAR,13,MONTECRISTO,13458,-74.4714158637,8.29724472765,1,15415
91,2016,BOLIVAR,13,MORALES,13473,-73.8681407138,8.27630560493,1,21179
92,2016,BOLIVAR,13,SAN JACINTO,13654,-75.1210906283,9.8302177331,2,23888
93,2016,BOLIVAR,13,TURBACO,13836,-75.424409165,10.332772802,4,100929
94,2016,BOLIVAR,13,TURBANA,13838,-75.4425018865,10.2744001934,2,15883
95,2016,BOYACA,15,BELEN,15087,-72.9116162763,5.98928041246,2,7568
96,2016,BOYACA,15,BERBEO,15090,-73.1270304656,5.22728677682,1,1616
97,2016,BOYACA,15,BOYACA,15104,-73.3623009748,5.45423551545,1,5013
98,2016,BOYACA,15,CHINAVITA,15172,-73.3684756833,5.16748347348,1,3202
99,2016,BOYACA,15,CHIQUINQUIRA,15176,-73.8183869915,5.61412836353,3,54562
100,2016,BOYACA,15,CHITARAQUE,15185,-73.4471010235,6.02742601824,1,5736
101,2016,BOYACA,15,DUITAMA,15238,-73.030610836,5.82298464605,6,118852
102,2016,BOYACA,15,GAMEZA,15296,-72.8055270159,5.80233579091,1,4841
103,2016,BOYACA,15,GARAGOA,15299,-73.3644267841,5.08324283869,3,17504
104,2016,BOYACA,15,GUAYATA,15325,-73.4896957862,4.9671242815,1,3639
105,2016,BOYACA,15,JENESANO,15367,-73.3638083915,5.3857721813,1,7013
106,2016,BOYACA,15,JERICO,15368,-72.5711238428,6.14575069674,1,4058
107,2016,BOYACA,15,LA CAPILLA,15380,-73.4443470863,5.09568803762,1,2674
108,2016,BOYACA,15,MIRAFLORES,15455,-73.1456279863,5.19651615513,2,8816
109,2016,BOYACA,15,MONGUA,15464,-72.7981001021,5.75423927382,1,4678
110,2016,BOYACA,15,MONIQUIRA,15469,-73.5733706158,5.87633305531,4,22302
111,2016,BOYACA,15,OTANCHE,15507,-74.1809678964,5.65753554395,1,7937
112,2016,BOYACA,15,PACHAVITA,15511,-73.3969550834,5.14006205365,1,2535
113,2016,BOYACA,15,PAIPA,15516,-73.1179179167,5.77994168888,3,32500
114,2016,BOYACA,15,PESCA,15542,-73.0508685115,5.55881131008,1,7088
115,2016,BOYACA,15,PUERTO BOYACA,15572,-74.5877827354,5.97664715502,1,45509
116,2016,BOYACA,15,RAQUIRA,15600,-73.6325018712,5.53906792025,1,7684
117,2016,BOYACA,15,SABOYA,15632,-73.7646637544,5.69773271604,1,13345
118,2016,BOYACA,15,SAN LUIS DE GACENO,15667,-73.168359454,4.81969008637,1,5577
119,2016,BOYACA,15,SOGAMOSO,15759,-72.9230476498,5.72568884872,8,124070
120,2016,BOYACA,15,SOTAQUIRA,15763,-73.2465867116,5.76498918403,1,7988
121,2016,BOYACA,15,TOTA,15822,-72.9858969227,5.56050183137,1,5121
122,2016,BOYACA,15,TUNJA,15001,-73.3554896602,5.5399515492,14,167207
123,2016,BOYACA,15,UMBITA,15842,-73.4569158202,5.2211724175,1,7442
124,2016,BOYACA,15,VENTAQUEMADA,15861,-73.5224525403,5.36885763606,1,15270
125,2016,BOYACA,15,VIRACACHA,15879,-73.2969005657,5.43678857653,1,2858
126,2016,CALDAS,17,AGUADAS,17013,-75.454871642,5.61024846724,2,22984
127,2016,CALDAS,17,ANSERMA,17042,-75.784340784,5.23647611674,6,36028
128,2016,CALDAS,17,ARANZAZU,17050,-75.4912889044,5.27119632374,3,10831
129,2016,CALDAS,17,CHINCHINA,17174,-75.6074818919,4.98581250175,3,50745
130,2016,CALDAS,17,FILADELFIA,17272,-75.5624695597,5.29709791696,4,11779
131,2016,CALDAS,17,LA DORADA,17380,-74.6684167053,5.46047440177,8,70745
132,2016,CALDAS,17,LA MERCED,17388,-75.5465723441,5.3963721836,1,6277
133,2016,CALDAS,17,MANIZALES,17001,-75.4910467146,5.05768733557,24,425208
134,2016,CALDAS,17,MARMATO,17442,-75.6002457911,5.47400212843,1,8727
135,2016,CALDAS,17,PACORA,17513,-75.4596225837,5.52717452159,2,15583
136,2016,CALDAS,17,PALESTINA,17524,-75.6244642214,5.01783945198,3,15642
137,2016,CALDAS,17,PENSILVANIA,17541,-75.1603002765,5.38327868783,1,20459
138,2016,CALDAS,17,RIOSUCIO,17614,-75.7020653762,5.42367236012,1,48898
139,2016,CALDAS,17,SALAMINA,17653,-75.4872184576,5.40301872766,2,19703
140,2016,CALDAS,17,SAMANA,17662,-74.9922442639,5.41308071675,1,21144
141,2016,CALDAS,17,SAN JOSE,17665,-75.7920593314,5.08231096392,1,5262
142,2016,CALDAS,17,VICTORIA,17867,-74.9111571246,5.31741797231,1,10163
143,2016,CALDAS,17,VILLAMARIA,17873,-75.513760602,5.043806686,4,62261
144,2016,CAQUETA,18,EL DONCELLO,18247,-75.2835647468,1.67986937815,1,19605
145,2016,CAQUETA,18,FLORENCIA,18001,-75.6085597398,1.61792408755,5,167157
146,2016,CAQUETA,18,LA MONTANITA,18410,-75.4364058573,1.4791703207,1,14720
147,2016,CAQUETA,18,SAN VICENTE DEL CAGUAN,18753,-74.768675935,2.119492544,5,49782
148,2016,CASANARE,85,AGUAZUL,85010,-72.5463004198,5.17269004261,1,35532
149,2016,CASANARE,85,MONTERREY,85162,-72.8950348515,4.87684630992,1,16867
150,2016,CASANARE,85,NUNCHIA,85225,-72.1950710689,5.63666390187,1,8556
151,2016,CASANARE,85,OROCUE,85230,-71.3385186268,4.79026959264,1,11714
152,2016,CASANARE,85,PAZ DE ARIPORO,85250,-71.8909234158,5.88003712521,1,34790
153,2016,CASANARE,85,PORE,85263,-71.9928594902,5.72773022764,1,11563
154,2016,CASANARE,85,TAURAMENA,85410,-72.7472511701,5.01920691152,1,22402
155,2016,CASANARE,85,VILLANUEVA,85440,-72.9280536201,4.61007185165,1,33711
156,2016,CASANARE,85,YOPAL,85001,-72.3969155417,5.32761201728,6,160747
157,2016,CAUCA,19,ARGELIA,19050,-77.2494517909,2.2567543324,1,25582
158,2016,CAUCA,19,BOLIVAR,19100,-76.966314876,1.83741330862,1,39164
159,2016,CAUCA,19,BUENOS AIRES,19110,-76.64227784,3.01543022433,1,30550
160,2016,CAUCA,19,CALDONO,19137,-76.4844459642,2.79812829791,2,38483
161,2016,CAUCA,19,CALOTO,19142,-76.4084869367,3.03407175083,3,28515
162,2016,CAUCA,19,EL TAMBO,19256,-76.8107676072,2.45137293838,2,53446
163,2016,CAUCA,19,INZA,19355,-76.0634951224,2.54918501375,1,28150
164,2016,CAUCA,19,JAMBALO,19364,-76.3238756382,2.7778396408,1,17154
165,2016,CAUCA,19,POPAYAN,19001,-76.5988923721,2.45994897276,28,310409
166,2016,CAUCA,19,SANTANDER DE QUILICHAO,19698,-76.4853693048,3.0160508863,5,107906
167,2016,CAUCA,19,TIMBIO,19807,-76.6842365775,2.34997651977,2,35004
168,2016,CAUCA,19,TORIBIO,19821,-76.2703068212,2.95299012669,1,33386
169,2016,CAUCA,19,VILLA RICA,19845,-76.4578733961,3.17757710044,1,20139
170,2016,CESAR,20,AGUACHICA,20011,-73.6129927186,8.30735417168,7,103714
171,2016,CESAR,20,AGUSTIN CODAZZI,20013,-73.2383965158,10.040457318,4,58086
172,2016,CESAR,20,BOSCONIA,20060,-73.888765758,9.975094669,3,38121
173,2016,CESAR,20,CHIMICHAGUA,20175,-73.8133298841,9.2582722175,1,32280
174,2016,CESAR,20,CHIRIGUANA,20178,-73.600147529,9.36118941734,1,26190
175,2016,CESAR,20,EL COPEY,20238,-73.9627178522,10.1495254704,1,29026
176,2016,CESAR,20,EL PASO,20250,-73.741788511,9.66847095606,3,34570
177,2016,CESAR,20,GONZALEZ,20310,-73.380042178,8.38960324723,1,4499
178,2016,CESAR,20,LA GLORIA,20383,-73.8032098836,8.61929805971,1,16010
179,2016,CESAR,20,LA JAGUA DE IBIRICO,20400,-73.3342269159,9.56388783532,1,43661
180,2016,CESAR,20,RIO DE ORO,20614,-73.3863920498,8.29228968373,1,15924
181,2016,CESAR,20,SAN MARTIN,20770,-73.5109750558,7.99989421258,1,24965
182,2016,CESAR,20,VALLEDUPAR,20001,-73.2593904181,10.4604806696,23,463923
183,2016,CHOCO,27,RIOSUCIO,27615,-77.1131097247,7.43663369807,1,49710
184,2016,CHOCO,27,UNGUIA,27800,-77.0925373837,8.04406133438,1,12605
185,2016,CORDOBA,23,CERETE,23162,-75.7961971634,8.88859098259,4,103241
186,2016,CORDOBA,23,MONTELIBANO,23466,-75.4168167918,7.97377871713,3,78682
187,2016,CORDOBA,23,MONTERIA,23001,-75.8732573059,8.75981523965,17,478806
188,2016,CORDOBA,23,PLANETA RICA,23555,-75.5832417103,8.40820221055,2,63538
189,2016,CORDOBA,23,PUEBLO NUEVO,23570,-75.5079697769,8.50400390305,1,34608
190,2016,CORDOBA,23,PUERTO LIBERTADOR,23580,-75.6718011007,7.88883325281,1,40285
191,2016,CORDOBA,23,SAN ANTERO,23672,-75.7607741431,9.37621656532,3,32818
192,2016,CORDOBA,23,SAN PELAYO,23686,-75.8351254915,8.95800878711,1,51190
193,2016,CUNDINAMARCA,25,APULO,25599,-74.5938056203,4.52034489324,1,7677
194,2016,CUNDINAMARCA,25,BOJACA,25099,-74.3445936942,4.73720453576,1,8915
195,2016,CUNDINAMARCA,25,CACHIPAY,25123,-74.4357007521,4.73095518422,3,9334
196,2016,CUNDINAMARCA,25,CAJICA,25126,-74.0234537112,4.92081005268,4,73490
197,2016,CUNDINAMARCA,25,CAQUEZA,25151,-73.9464770211,4.4040950188,1,16219
198,2016,CUNDINAMARCA,25,CHIA,25175,-74.0503469604,4.86606490054,8,118119
199,2016,CUNDINAMARCA,25,CHIPAQUE,25178,-74.0448735948,4.44267057023,1,8964
200,2016,CUNDINAMARCA,25,COGUA,25200,-73.9784922543,5.06184103042,2,20225
201,2016,CUNDINAMARCA,25,EL ROSAL,25260,-74.2630068618,4.85053609442,1,19963
202,2016,CUNDINAMARCA,25,FACATATIVA,25269,-74.3502169563,4.81303164667,4,125326
203,2016,CUNDINAMARCA,25,FOMEQUE,25279,-73.8925231,4.48547472611,5,11325
204,2016,CUNDINAMARCA,25,FUNZA,25286,-74.2014894559,4.71038172914,3,83139
205,2016,CUNDINAMARCA,25,FUSAGASUGA,25290,-74.3754601635,4.33667468248,4,125010
206,2016,CUNDINAMARCA,25,GIRARDOT,25307,-74.7977961492,4.31307939531,6,93072
207,2016,CUNDINAMARCA,25,GRANADA,25312,-74.3507638172,4.51976536572,1,6535
208,2016,CUNDINAMARCA,25,GUADUAS,25320,-74.6029553866,5.07187008998,4,28274
209,2016,CUNDINAMARCA,25,GUATAVITA,25326,-73.8329037894,4.93513630968,2,5925
210,2016,CUNDINAMARCA,25,GUAYABETAL,25335,-73.8150933246,4.21529724505,2,5793
211,2016,CUNDINAMARCA,25,GUTIERREZ,25339,-74.0030457779,4.25467590551,2,3286
212,2016,CUNDINAMARCA,25,LA CALERA,25377,-73.967966495,4.72138578652,3,27322
213,2016,CUNDINAMARCA,25,LA MESA,25386,-74.4615492187,4.63104312817,3,29823
214,2016,CUNDINAMARCA,25,LA PALMA,25394,-74.3910209321,5.35881843551,2,9251
215,2016,CUNDINAMARCA,25,LA VEGA,25402,-74.331153833,4.993079959,1,15561
216,2016,CUNDINAMARCA,25,MADRID,25430,-74.2637266314,4.73273240481,4,99781
217,2016,CUNDINAMARCA,25,MOSQUERA,25473,-74.2193416046,4.70701024824,5,114348
218,2016,CUNDINAMARCA,25,NEMOCON,25486,-73.8778894768,5.0687018248,1,12043
219,2016,CUNDINAMARCA,25,NOCAIMA,25491,-74.3791125286,5.06946324832,1,5770
220,2016,CUNDINAMARCA,25,PACHO,25513,-74.156116064,5.13694532224,1,23140
221,2016,CUNDINAMARCA,25,PAIME,25518,-74.1522155939,5.37048460317,1,4187
222,2016,CUNDINAMARCA,25,PARATEBUENO,25530,-73.2128246502,4.37483210325,2,7586
223,2016,CUNDINAMARCA,25,PUERTO SALGAR,25572,-74.6537031753,5.46542650967,2,14320
224,2016,CUNDINAMARCA,25,QUETAME,25594,-73.863113968,4.32982614634,1,4892
225,2016,CUNDINAMARCA,25,SAN JUAN DE RIOSECO,25662,-74.6219134166,4.84757915971,1,7942
226,2016,CUNDINAMARCA,25,SIBATE,25740,-74.2578772349,4.49261081381,1,30477
227,2016,CUNDINAMARCA,25,SILVANIA,25743,-74.4055246172,4.3819448056,1,20110
228,2016,CUNDINAMARCA,25,SIMIJACA,25745,-73.8503228188,5.5054287938,2,11814
229,2016,CUNDINAMARCA,25,SOACHA,25754,-74.2154309452,4.57939176705,41,583007
230,2016,CUNDINAMARCA,25,SOPO,25758,-73.9433295095,4.91539965901,2,23146
231,2016,CUNDINAMARCA,25,SUBACHOQUE,25769,-74.1727096099,4.92907887681,1,14889
232,2016,CUNDINAMARCA,25,SUTATAUSA,25781,-73.853153077,5.24748742315,1,5422
233,2016,CUNDINAMARCA,25,TABIO,25785,-74.0961796864,4.91720363832,2,19672
234,2016,CUNDINAMARCA,25,TENJO,25799,-74.1439551406,4.87195981007,1,19931
235,2016,CUNDINAMARCA,25,TIBACUY,25805,-74.4526612198,4.34859760533,1,4126
236,2016,CUNDINAMARCA,25,TOCANCIPA,25817,-73.9120940816,4.96478385194,3,35666
237,2016,CUNDINAMARCA,25,UBALA,25839,-73.5315000926,4.74752288166,2,7717
238,2016,CUNDINAMARCA,25,VERGARA,25862,-74.3463679542,5.11730960751,1,6670
239,2016,CUNDINAMARCA,25,VILLA DE SAN DIEGO DE UBATE,25843,-73.814345661,5.30754135963,1,38638
240,2016,CUNDINAMARCA,25,VILLAPINZON,25873,-73.5953530971,5.2164390104,1,16115
241,2016,CUNDINAMARCA,25,VILLETA,25875,-74.4697042298,5.01279238093,2,24903
242,2016,CUNDINAMARCA,25,ZIPACON,25898,-74.3795933564,4.75992897105,1,4364
243,2016,CUNDINAMARCA,25,ZIPAQUIRA,25899,-73.9944757558,5.02547142431,9,118023
244,2016,GUAINIA,94,INIRIDA,94001,-67.9186012392,3.86662347201,3,29287
245,2016,GUAVIARE,95,CALAMAR,95015,-72.6551728661,1.96010887255,1,8976
246,2016,GUAVIARE,95,SAN JOSE DEL GUAVIARE,95001,-72.6390287201,2.56608342423,5,50608
247,2016,HUILA,41,ACEVEDO,41006,-75.8885349597,1.80526386823,2,24076
248,2016,HUILA,41,AIPE,41016,-75.2390312259,3.22359766887,2,15872
249,2016,HUILA,41,ALGECIRAS,41020,-75.3153713579,2.52244696827,3,22205
250,2016,HUILA,41,BARAYA,41078,-75.0544887925,3.15255100755,1,8267
251,2016,HUILA,41,CAMPOALEGRE,41132,-75.325759412,2.6868370205,1,30772
252,2016,HUILA,41,ELIAS,41244,-75.9380188082,2.01270035981,1,4086
253,2016,HUILA,41,GARZON,41298,-75.6270510273,2.1964533881,6,70487
254,2016,HUILA,41,GIGANTE,41306,-75.5476811212,2.38403102318,2,24276
255,2016,HUILA,41,GUADALUPE,41319,-75.7570381788,2.0241600111,1,17381
256,2016,HUILA,41,LA ARGENTINA,41378,-75.9797673085,2.19824600615,1,12443
257,2016,HUILA,41,LA PLATA,41396,-75.8914521307,2.3896474978,9,59377
258,2016,HUILA,41,NEIVA,41001,-75.2777314808,2.93555887476,21,349048
259,2016,HUILA,41,PITAL,41548,-75.8040001118,2.26668106868,3,13511
260,2016,HUILA,41,PITALITO,41551,-76.0490044984,1.85297434352,5,120010
261,2016,HUILA,41,RIVERA,41615,-75.258550208,2.77757018071,4,23537
262,2016,HUILA,41,SAN AGUSTIN,41668,-76.2703587983,1.8810855128,5,32333
263,2016,HUILA,41,SANTA MARIA,41676,-75.5861244534,2.93974915231,3,10283
264,2016,HUILA,41,SUAZA,41770,-75.7950572711,1.97584502137,1,20950
265,2016,HUILA,41,TARQUI,41791,-75.8235763181,2.11132341997,1,17015
266,2016,HUILA,41,TELLO,41799,-75.1387731609,3.06753684585,1,11780
267,2016,HUILA,41,TESALIA,41797,-75.7298384859,2.48605278998,4,10457
268,2016,HUILA,41,TIMANA,41807,-75.9320853384,1.97422503882,1,21307
269,2016,HUILA,41,YAGUARA,41885,-75.5180231181,2.66469363692,1,7572
270,2016,MAGDALENA,47,CIENAGA,47189,-74.2412855651,11.0066586077,7,117496
271,2016,MAGDALENA,47,EL BANCO,47245,-73.9742847149,9.0087359751,3,62912
272,2016,MAGDALENA,47,FUNDACION,47288,-74.1913417387,10.5140917977,1,63819
273,2016,MAGDALENA,47,GUAMAL,47318,-74.2236997384,9.14438638111,2,25689
274,2016,MAGDALENA,47,PLATO,47555,-74.784684214,9.79677054749,2,59051
275,2016,MAGDALENA,47,PUEBLOVIEJO,47570,-74.2824768666,10.9948385981,1,28064
276,2016,MAGDALENA,47,SANTA MARTA,47001,-74.2002109893,11.2047725963,15,477190
277,2016,MAGDALENA,47,SITIONUEVO,47745,-74.7201694573,10.775407167,1,25891
278,2016,META,50,ACACIAS,50006,-73.7659360698,3.99012009704,8,84461
279,2016,META,50,CUMARAL,50226,-73.4861069057,4.26953744789,2,22111
280,2016,META,50,GRANADA,50313,-73.7057158517,3.5466952856,2,66715
281,2016,META,50,GUAMAL,50318,-73.7699625676,3.88014002777,1,13815
282,2016,META,50,LA MACARENA,50350,-73.7870674795,2.17821444079,1,25335
283,2016,META,50,LEJANIAS,50400,-74.0231951223,3.52474093193,1,11235
284,2016,META,50,PUERTO GAITAN,50568,-72.083078729,4.314485152,1,39240
285,2016,META,50,PUERTO LOPEZ,50573,-72.9574366102,4.09340699377,1,29617
286,2016,META,50,PUERTO RICO,50590,-73.2065146907,2.93974329234,2,13020
287,2016,META,50,RESTREPO,50606,-73.5646064827,4.26072972714,2,17648
288,2016,META,50,SAN CARLOS DE GUAROA,50680,-73.2414110088,3.71053695717,2,11802
289,2016,META,50,SAN MARTIN,50689,-73.6956173593,3.70188012803,3,26051
290,2016,META,50,VILLAVICENCIO,50001,-73.624562528,4.1238593011,23,512462
291,2016,META,50,VISTAHERMOSA,50711,-73.7510280336,3.1256671671,2,17762
292,2016,NARINO,52,BARBACOAS,52079,-78.1375768702,1.67144343524,4,53984
293,2016,NARINO,52,CONSACA,52207,-77.4657291646,1.20762916553,1,13676
294,2016,NARINO,52,CORDOBA,52215,-77.5178993163,0.854572506919,1,15349
295,2016,NARINO,52,CUMBAL,52227,-77.7922761776,0.906185196967,1,35762
296,2016,NARINO,52,IPIALES,52356,-77.6463999012,0.827735060636,10,114694
297,2016,NARINO,52,LA UNION,52399,-77.1311540017,1.60025484037,1,31456
298,2016,NARINO,52,NARINO,52480,-77.3579742048,1.28897586144,1,4321
299,2016,NARINO,52,OSPINA,52506,-77.5660692089,1.05849067089,2,7120
300,2016,NARINO,52,PUPIALES,52585,-77.63350443,0.867138527,1,17693
301,2016,NARINO,52,RICAURTE,52612,-77.9954468866,1.21293165479,1,19003
302,2016,NARINO,52,SAMANIEGO,52678,-77.5944553745,1.33535141458,1,30725
303,2016,NARINO,52,SANDONA,52683,-77.4730451357,1.28314414356,1,21500
304,2016,NARINO,52,SAPUYES,52720,-77.6202980414,1.03752383941,1,7310
305,2016,NARINO,52,TUQUERRES,52838,-77.6168833378,1.08519299564,5,44460
306,2016,PUTUMAYO,86,MOCOA,86001,-76.6515068624,1.1525800991,6,53461
307,2016,PUTUMAYO,86,ORITO,86320,-76.8730276477,0.663818348772,3,36224
308,2016,PUTUMAYO,86,PUERTO ASIS,86568,-76.4972710861,0.505047577006,9,62285
309,2016,PUTUMAYO,86,PUERTO CAICEDO,86569,-76.6057791692,0.6877836264,2,15596
310,2016,PUTUMAYO,86,PUERTO LEGUIZAMO,86573,-74.7824713482,-0.191870260599,3,27169
311,2016,PUTUMAYO,86,SAN FRANCISCO,86755,-76.8792415368,1.17421702835,1,5503
312,2016,PUTUMAYO,86,SANTIAGO,86760,-77.0021350607,1.14728349518,2,6989
313,2016,PUTUMAYO,86,SIBUNDOY,86749,-76.9174823545,1.20011541585,1,14384
314,2016,PUTUMAYO,86,VILLAGARZON,86885,-76.6171636979,1.02893997049,2,22959
315,2016,QUINDIO,63,ARMENIA,63001,-75.6807545438,4.535987208,24,289151
316,2016,QUINDIO,63,BUENAVISTA,63111,-75.7395664635,4.36002504159,1,3048
317,2016,QUINDIO,63,CALARCA,63130,-75.6455330683,4.52148797904,4,71320
318,2016,QUINDIO,63,CIRCASIA,63190,-75.6365262734,4.61779473259,3,27461
319,2016,QUINDIO,63,FILANDIA,63272,-75.6586823883,4.67414703386,2,11876
320,2016,QUINDIO,63,GENOVA,63302,-75.790631528,4.20651089858,1,7617
321,2016,QUINDIO,63,LA TEBAIDA,63401,-75.786460159,4.45365278508,2,32471
322,2016,QUINDIO,63,MONTENEGRO,63470,-75.7498287033,4.56505578418,3,36330
323,2016,QUINDIO,63,PIJAO,63548,-75.7033166279,4.33504179687,2,5402
324,2016,QUINDIO,63,QUIMBAYA,63594,-75.7650742652,4.62438412181,2,30683
325,2016,QUINDIO,63,SALENTO,63690,-75.5708458112,4.63715372291,2,8947
326,2016,RISARALDA,66,BELEN DE UMBRIA,66088,-75.868216089,5.20064515187,2,24803
327,2016,RISARALDA,66,DOSQUEBRADAS,66170,-75.6761693197,4.83402887527,10,211592
328,2016,RISARALDA,66,LA VIRGINIA,66400,-75.8802026174,4.89654777308,1,27939
329,2016,RISARALDA,66,MARSELLA,66440,-75.7385816147,4.93556204249,1,17253
330,2016,RISARALDA,66,MISTRATO,66456,-75.8828627404,5.29706285959,1,16512
331,2016,RISARALDA,66,PEREIRA,66001,-75.7190152322,4.80532287092,34,459033
332,2016,RISARALDA,66,PUEBLO RICO,66572,-76.0306678019,5.22191328206,1,15779
333,2016,RISARALDA,66,QUINCHIA,66594,-75.7304104711,5.34044152422,3,27229
334,2016,RISARALDA,66,SANTA ROSA DE CABAL,66682,-75.6234918103,4.87640374593,5,77296
335,2016,RISARALDA,66,SANTUARIO,66687,-75.9645220611,5.07493802723,1,12845
336,2016,SANTANDER,68,ARATOCA,68051,-73.0178497692,6.694438882,1,8042
337,2016,SANTANDER,68,BARBOSA,68077,-73.6159986977,5.93261018035,3,29784
338,2016,SANTANDER,68,BARRANCABERMEJA,68081,-73.8499567312,7.06496573153,17,198513
339,2016,SANTANDER,68,BETULIA,68092,-73.2836713462,6.89952350256,1,5868
340,2016,SANTANDER,68,BOLIVAR,68101,-73.7713434117,5.98895175043,1,11769
341,2016,SANTANDER,68,BUCARAMANGA,68001,-73.1325976221,7.11626842734,24,562123
342,2016,SANTANDER,68,CAPITANEJO,68147,-72.6954661576,6.52741643996,1,5662
343,2016,SANTANDER,68,CHARTA,68169,-72.9687942408,7.28081908866,1,2868
344,2016,SANTANDER,68,CONTRATACION,68211,-73.4744250645,6.29055860254,1,3599
345,2016,SANTANDER,68,COROMORO,68217,-73.0408156038,6.29499521987,1,5125
346,2016,SANTANDER,68,CURITI,68229,-73.0693896277,6.6051082188,1,12330
347,2016,SANTANDER,68,EL GUACAMAYO,68245,-73.496894218,6.24512015463,1,2151
348,2016,SANTANDER,68,FLORIDABLANCA,68276,-73.0990307075,7.07236450273,7,280553
349,2016,SANTANDER,68,GALAN,68296,-73.2877642173,6.638415125,1,2900
350,2016,SANTANDER,68,GIRON,68307,-73.1667133582,7.07052391696,8,152478
351,2016,SANTANDER,68,GUAVATA,68324,-73.7008028162,5.95413334223,1,4339
352,2016,SANTANDER,68,LANDAZURI,68385,-73.8110930176,6.21874730469,1,10251
353,2016,SANTANDER,68,LEBRIJA,68406,-73.2195525933,7.11335571687,4,40177
354,2016,SANTANDER,68,LOS SANTOS,68418,-73.1026597725,6.75517251979,5,13593
355,2016,SANTANDER,68,PIEDECUESTA,68547,-73.0545933904,6.99735677431,13,161847
356,2016,SANTANDER,68,PUERTO PARRA,68573,-74.0560908372,6.65080789008,1,7493
357,2016,SANTANDER,68,PUERTO WILCHES,68575,-73.899334022,7.349066143,1,31762
358,2016,SANTANDER,68,RIONEGRO,68615,-73.150142083,7.26500895024,1,26229
359,2016,SANTANDER,68,SABANA DE TORRES,68655,-73.4990518794,7.39191179389,2,31913
360,2016,SANTANDER,68,SAN GIL,68679,-73.1351665257,6.55295530633,2,54009
361,2016,SANTANDER,68,SAN JOSE DE MIRANDA,68684,-72.7336238268,6.6589966561,1,4492
362,2016,SANTANDER,68,SAN VICENTE DE CHUCURI,68689,-73.4110187818,6.88037882713,1,33104
363,2016,SANTANDER,68,SOCORRO,68755,-73.2611960328,6.46385144732,2,31208
364,2016,SANTANDER,68,TONA,68820,-72.967024817,7.20140058159,1,7156
365,2016,SANTANDER,68,VALLE DE SAN JOSE,68855,-73.1437389075,6.44778897572,1,5947
366,2016,SANTANDER,68,VELEZ,68861,-73.666299069,6.010953449,2,23554
367,2016,SANTANDER,68,VETAS,68867,-72.8710436133,7.30980555024,2,2063
368,2016,SUCRE,70,COROZAL,70215,-75.2931493701,9.31910061656,5,65666
369,2016,SUCRE,70,LOS PALMITOS,70418,-75.268750942,9.3802289505,1,22178
370,2016,SUCRE,70,MAJAGUAL,70429,-74.6281041912,8.54071408117,1,35299
371,2016,SUCRE,70,MORROA,70473,-75.306200083,9.33132173665,2,14566
372,2016,SUCRE,70,OVEJAS,70508,-75.2290829562,9.52668815702,2,22554
373,2016,SUCRE,70,SAMPUES,70670,-75.3802942192,9.18312851604,1,44360
374,2016,SUCRE,70,SAN BENITO ABAD,70678,-75.0311600711,8.92996976102,1,28061
375,2016,SUCRE,70,SAN ONOFRE,70713,-75.5230283613,9.7369328609,1,48610
376,2016,SUCRE,70,SAN PEDRO,70717,-75.0634845353,9.39596570901,1,18272
377,2016,SUCRE,70,SANTIAGO DE TOLU,70820,-75.5811043366,9.52547457425,1,32165
378,2016,SUCRE,70,SINCELEJO,70001,-75.395481772,9.30233021687,18,268622
379,2016,SUCRE,70,TOLU VIEJO,70823,-75.4408214257,9.45183874964,2,20604
380,2016,TOLIMA,73,ALVARADO,73026,-74.9535551796,4.56734522829,2,8714
381,2016,TOLIMA,73,ATACO,73067,-75.3825339259,3.59063460119,1,19463
382,2016,TOLIMA,73,CHAPARRAL,73168,-75.4807434103,3.72306834875,6,50157
383,2016,TOLIMA,73,FLANDES,73275,-74.8187677213,4.2763717138,1,28294
384,2016,TOLIMA,73,FRESNO,73283,-75.0356196095,5.15363945469,1,31005
385,2016,TOLIMA,73,GUAMO,73319,-74.9681289601,4.03100475679,1,33103
386,2016,TOLIMA,73,HONDA,73349,-74.741577974,5.2015089,3,25060
387,2016,TOLIMA,73,IBAGUE,73001,-75.1953679078,4.43280938914,46,520856
388,2016,TOLIMA,73,LIBANO,73411,-75.0619532821,4.92041843293,6,37293
389,2016,TOLIMA,73,MELGAR,73449,-74.6409314721,4.20394596681,1,35741
390,2016,TOLIMA,73,ROVIRA,73624,-75.2408706668,4.2389330111,3,21808
391,2016,TOLIMA,73,VALLE DE SAN JUAN,73854,-75.1156695836,4.19749423898,2,5377
392,2017,AMAZONAS,91,LETICIA,91001,-69.9415818923,-4.19844539201,1,47204
393,2017,AMAZONAS,91,PUERTO ARICA,91536,-71.7521861992,-2.1470396022,1,1004
394,2017,ANTIOQUIA,5,ABEJORRAL,5002,-75.4287403904,5.78930111433,1,20437
395,2017,ANTIOQUIA,5,AMAGA,5030,-75.7019483389,6.03880842381,1,29663
396,2017,ANTIOQUIA,5,AMALFI,5031,-75.0774749239,6.90967360478,1,25518
397,2017,ANTIOQUIA,5,ANDES,5034,-75.878794075,5.65676971311,1,42817
398,2017,ANTIOQUIA,5,ANGOSTURA,5038,-75.3351091186,6.88518441484,1,11396
399,2017,ANTIOQUIA,5,ANORI,5040,-75.1483449609,7.07471004137,2,17991
400,2017,ANTIOQUIA,5,APARTADO,5045,-76.6258909217,7.88325108195,8,118064
401,2017,ANTIOQUIA,5,BARBOSA,5079,-75.3316403017,6.4392260115,1,51049
402,2017,ANTIOQUIA,5,BELLO,5088,-75.5546673053,6.33406558292,28,510031
403,2017,ANTIOQUIA,5,BETULIA,5093,-75.9845155699,6.11525553285,1,15494
404,2017,ANTIOQUIA,5,BRICENO,5107,-75.550356304,7.11280551402,1,8053
405,2017,ANTIOQUIA,5,CAICEDO,5125,-75.9828123649,6.40556397358,1,8220
406,2017,ANTIOQUIA,5,CAMPAMENTO,5134,-75.298084784,6.97977648289,5,9196
407,2017,ANTIOQUIA,5,CAREPA,5147,-76.653210744,7.75511548219,1,46629
408,2017,ANTIOQUIA,5,CAUCASIA,5154,-75.1982784645,7.97734097812,4,88188
409,2017,ANTIOQUIA,5,CIUDAD BOLIVAR,5101,-76.0215106815,5.85027282845,3,25975
410,2017,ANTIOQUIA,5,CONCORDIA,5209,-75.9084535194,6.04608659615,3,21275
411,2017,ANTIOQUIA,5,COPACABANA,5212,-75.5093435119,6.34863947056,6,76210
412,2017,ANTIOQUIA,5,DABEIBA,5234,-76.2616178227,6.99811575168,6,22836
413,2017,ANTIOQUIA,5,DONMATIAS,5237,-75.3926751288,6.48560723899,1,18533
414,2017,ANTIOQUIA,5,EBEJICO,5240,-75.7662136607,6.32605663471,2,12177
415,2017,ANTIOQUIA,5,EL BAGRE,5250,-74.7990970119,7.5975218855,3,50544
416,2017,ANTIOQUIA,5,EL CARMEN DE VIBORAL,5148,-75.3342620232,6.08347326731,1,58120
417,2017,ANTIOQUIA,5,EL SANTUARIO,5697,-75.2654679804,6.13685720436,1,34862
418,2017,ANTIOQUIA,5,ENVIGADO,5266,-75.5830089369,6.16700589298,18,223456
419,2017,ANTIOQUIA,5,FREDONIA,5282,-75.6750932516,5.9280855467,3,24252
420,2017,ANTIOQUIA,5,GIRARDOTA,5308,-75.4444597681,6.37961535607,4,50456
421,2017,ANTIOQUIA,5,GUARNE,5318,-75.4416535712,6.27802696108,6,53835
422,2017,ANTIOQUIA,5,GUATAPE,5321,-75.1600208818,6.23240969843,1,8203
423,2017,ANTIOQUIA,5,ITAGUI,5360,-75.6120815283,6.174929734,17,271038
424,2017,ANTIOQUIA,5,ITUANGO,5361,-75.7646752276,7.17163748398,2,26786
425,2017,ANTIOQUIA,5,JARDIN,5364,-75.8189807815,5.59753984677,1,14459
426,2017,ANTIOQUIA,5,JERICO,5368,-75.7855038531,5.78974203756,1,13733
427,2017,ANTIOQUIA,5,LA CEJA,5376,-75.4294329272,6.02805465836,6,63394
428,2017,ANTIOQUIA,5,LA ESTRELLA,5380,-75.645190382,6.15841993,4,69836
429,2017,ANTIOQUIA,5,LA PINTADA,5390,-75.6078057481,5.74380769651,1,8256
430,2017,ANTIOQUIA,5,LIBORINA,5411,-75.8128326075,6.67732537607,1,10007
431,2017,ANTIOQUIA,5,MARINILLA,5440,-75.3394598367,6.17404951538,4,63234
432,2017,ANTIOQUIA,5,MEDELLIN,5001,-75.5760017134,6.24858636743,155,2385018
433,2017,ANTIOQUIA,5,MONTEBELLO,5467,-75.5235098947,5.94632388294,1,6779
434,2017,ANTIOQUIA,5,MUTATA,5480,-76.4358758959,7.24287193339,3,13778
435,2017,ANTIOQUIA,5,NECOCLI,5490,-76.784574497,8.426136098,2,41526
436,2017,ANTIOQUIA,5,PUERTO BERRIO,5579,-74.4099459786,6.48703921007,4,38721
437,2017,ANTIOQUIA,5,PUERTO TRIUNFO,5591,-74.6412656382,5.87120719689,2,17669
438,2017,ANTIOQUIA,5,REMEDIOS,5604,-74.6980471636,7.02939076621,1,27869
439,2017,ANTIOQUIA,5,RETIRO,5607,-75.5013756659,6.06338107129,3,23017
440,2017,ANTIOQUIA,5,RIONEGRO,5615,-75.3767667557,6.1472245313,16,132301
441,2017,ANTIOQUIA,5,SABANETA,5631,-75.6155845416,6.15096981767,3,79983
442,2017,ANTIOQUIA,5,SALGAR,5642,-75.982048544,5.965640311,3,18241
443,2017,ANTIOQUIA,5,SAN CARLOS,5649,-74.9879605158,6.18798980145,1,16496
444,2017,ANTIOQUIA,5,SAN JERONIMO,5656,-75.7270000843,6.44806585636,3,15123
445,2017,ANTIOQUIA,5,SAN JOSE DE LA MONTANA,5658,-75.6833564182,6.85008880044,1,3581
446,2017,ANTIOQUIA,5,SAN PEDRO DE LOS MILAGROS,5664,-75.5567189241,6.46013808244,1,21564
447,2017,ANTIOQUIA,5,SAN PEDRO DE URABA,5665,-76.3805785791,8.27688468914,1,30431
448,2017,ANTIOQUIA,5,SAN RAFAEL,5667,-75.0279828807,6.29375698332,1,15747
449,2017,ANTIOQUIA,5,SAN ROQUE,5670,-75.0191661484,6.48594047044,1,21246
450,2017,ANTIOQUIA,5,SANTA BARBARA,5679,-75.5673548634,5.87554181135,1,26627
451,2017,ANTIOQUIA,5,SANTA ROSA DE OSOS,5686,-75.460740037,6.64332643406,9,35684
452,2017,ANTIOQUIA,5,SANTO DOMINGO,5690,-75.1649580592,6.47283350377,1,12426
453,2017,ANTIOQUIA,5,SEGOVIA,5736,-74.701588722,7.07963898594,3,37171
454,2017,ANTIOQUIA,5,SONSON,5756,-75.3093960124,5.7148075835,4,36145
455,2017,ANTIOQUIA,5,TAMESIS,5789,-75.7143199749,5.66446916892,2,16395
456,2017,ANTIOQUIA,5,TARAZA,5790,-75.4014092118,7.58011943984,4,26401
457,2017,ANTIOQUIA,5,TARSO,5792,-75.8229504893,5.86455255901,1,6133
458,2017,ANTIOQUIA,5,TURBO,5837,-76.7291596582,8.08911317497,3,122168
459,2017,ANTIOQUIA,5,URRAO,5847,-76.1339511488,6.31731976564,4,29791
460,2017,ANTIOQUIA,5,VALDIVIA,5854,-75.4391982543,7.1653440936,1,13700
461,2017,ANTIOQUIA,5,YARUMAL,5887,-75.4188327746,6.96387109143,5,41029
462,2017,ANTIOQUIA,5,YOLOMBO,5890,-75.0133479509,6.59459588827,1,22345
463,2017,ANTIOQUIA,5,ZARAGOZA,5895,-74.8670728872,7.48858244262,2,24430
464,2017,ARAUCA,81,ARAUCA,81001,-70.748009803,7.07390170095,16,81824
465,2017,ARAUCA,81,ARAUQUITA,81065,-71.4267498586,7.02698088637,4,47442
466,2017,ARAUCA,81,FORTUL,81300,-71.7685562393,6.79707707295,2,17916
467,2017,ARAUCA,81,PUERTO RONDON,81591,-71.1033929512,6.28146282154,1,4203
468,2017,ARAUCA,81,SARAVENA,81736,-71.8723328706,6.95386030424,8,53309
469,2017,ARAUCA,81,TAME,81794,-71.7537617572,6.45344199261,6,41909
470,2017,ATLANTICO,8,BARANOA,8078,-74.916106093,10.7948815688,3,60676
471,2017,ATLANTICO,8,BARRANQUILLA,8001,-74.8132169683,10.9783195607,53,1180860
472,2017,ATLANTICO,8,GALAPA,8296,-74.8703439389,10.9191614915,3,58493
473,2017,ATLANTICO,8,JUAN DE ACOSTA,8372,-75.0406070886,10.8323387608,1,20366
474,2017,ATLANTICO,8,LURUACO,8421,-75.1422887632,10.6111248118,1,27455
475,2017,ATLANTICO,8,MALAMBO,8433,-74.7748637454,10.856822692,10,124251
476,2017,ATLANTICO,8,PALMAR DE VARELA,8520,-74.7547589307,10.7385825597,4,28113
477,2017,ATLANTICO,8,PONEDERA,8560,-74.7539006043,10.6417959018,1,23193
478,2017,ATLANTICO,8,PUERTO COLOMBIA,8573,-74.851963055,11.022939949,2,47674
479,2017,ATLANTICO,8,REPELON,8606,-75.1254822303,10.4933403213,2,25524
480,2017,ATLANTICO,8,SABANAGRANDE,8634,-74.7585063109,10.7910757719,3,31373
481,2017,ATLANTICO,8,SABANALARGA,8638,-74.9210950072,10.6328326108,2,90769
482,2017,ATLANTICO,8,SANTO TOMAS,8685,-74.7577207286,10.7587230349,1,29001
483,2017,ATLANTICO,8,SOLEDAD,8758,-74.7848339582,10.9101742784,17,583036
484,2017,BOGOTA,11,BOGOTA,11001,-74.106715324,4.64993705899,347,7337449
485,2017,BOLIVAR,13,ARJONA,13052,-75.3444876588,10.256630539,5,68165
486,2017,BOLIVAR,13,CARTAGENA DE INDIAS,13001,-75.4964264795,10.3849883546,46,956464
487,2017,BOLIVAR,13,CLEMENCIA,13222,-75.3285123927,10.5675414931,1,14347
488,2017,BOLIVAR,13,EL CARMEN DE BOLIVAR,13244,-75.1212066427,9.71861199322,3,69478
489,2017,BOLIVAR,13,MAGANGUE,13430,-74.7667304396,9.26381346247,9,131183
490,2017,BOLIVAR,13,MAHATES,13433,-75.1913392756,10.2332538997,1,27158
491,2017,BOLIVAR,13,MARIA LA BAJA,13442,-75.3007611748,9.98264680271,2,45242
492,2017,BOLIVAR,13,SAN JACINTO,13654,-75.1210906283,9.8302177331,1,23852
493,2017,BOLIVAR,13,SAN JUAN NEPOMUCENO,13657,-75.081354128,9.95345322129,1,36324
494,2017,BOLIVAR,13,SAN MARTIN DE LOBA,13667,-74.0390124624,8.93709261013,1,15393
495,2017,BOLIVAR,13,SANTA ROSA DEL SUR,13688,-74.0518401571,7.96287055719,1,31756
496,2017,BOLIVAR,13,TURBACO,13836,-75.424409165,10.332772802,1,102688
497,2017,BOLIVAR,13,VILLANUEVA,13873,-75.2751686679,10.4443304246,2,23376
498,2017,BOLIVAR,13,ZAMBRANO,13894,-74.8180006807,9.74628103898,1,11759
499,2017,BOYACA,15,ALMEIDA,15022,-73.378935594,4.97085237348,1,2115
500,2017,BOYACA,15,BOYACA,15104,-73.3623009748,5.45423551545,1,5066
501,2017,BOYACA,15,CHIQUINQUIRA,15176,-73.8183869915,5.61412836353,4,55366
502,2017,BOYACA,15,CHITA,15183,-72.471892654,6.18708569854,1,8237
503,2017,BOYACA,15,CHITARAQUE,15185,-73.4471010235,6.02742601824,1,5822
504,2017,BOYACA,15,COMBITA,15204,-73.3239523652,5.63454905762,1,12800
505,2017,BOYACA,15,COPER,15212,-74.0454584503,5.47498409448,1,3627
506,2017,BOYACA,15,DUITAMA,15238,-73.030610836,5.82298464605,6,120573
507,2017,BOYACA,15,GUATEQUE,15322,-73.4712060695,5.0073212036,1,10574
508,2017,BOYACA,15,MACANAL,15425,-73.3196492275,4.97246523201,1,4958
509,2017,BOYACA,15,MIRAFLORES,15455,-73.1456279863,5.19651615513,1,8791
510,2017,BOYACA,15,MONIQUIRA,15469,-73.5733706158,5.87633305531,5,22265
511,2017,BOYACA,15,PAEZ,15514,-73.0525553002,5.09789282185,1,3283
512,2017,BOYACA,15,PAIPA,15516,-73.1179179167,5.77994168888,2,32940
513,2017,BOYACA,15,PAUNA,15531,-73.97844971,5.65632422107,4,7267
514,2017,BOYACA,15,PAZ DE RIO,15537,-72.7491433309,5.98764091396,1,4255
515,2017,BOYACA,15,PUERTO BOYACA,15572,-74.5877827354,5.97664715502,3,46073
516,2017,BOYACA,15,SABOYA,15632,-73.7646637544,5.69773271604,2,13383
517,2017,BOYACA,15,SACHICA,15638,-73.5426340731,5.58359189812,1,5375
518,2017,BOYACA,15,SAMACA,15646,-73.4856416273,5.49231280648,1,18051
519,2017,BOYACA,15,SANTA MARIA,15690,-73.2635138961,4.85719292711,1,3564
520,2017,BOYACA,15,SANTA ROSA DE VITERBO,15693,-72.9824613082,5.87455316111,1,12960
521,2017,BOYACA,15,SOCOTA,15755,-72.6366624073,6.04117646761,1,7441
522,2017,BOYACA,15,SOGAMOSO,15759,-72.9230476498,5.72568884872,14,125566
523,2017,BOYACA,15,SORACA,15764,-73.3328033775,5.50090450683,1,5928
524,2017,BOYACA,15,SUTAMARCHAN,15776,-73.6205898779,5.61978069759,1,6047
525,2017,BOYACA,15,TENZA,15798,-73.4211738566,5.07677835138,1,3853
526,2017,BOYACA,15,TIBANA,15804,-73.396456268,5.31725075558,1,8991
527,2017,BOYACA,15,TIBASOSA,15806,-72.9994496769,5.74722853114,1,12680
528,2017,BOYACA,15,TINJACA,15808,-73.6468538952,5.57971084145,1,3238
529,2017,BOYACA,15,TUNJA,15001,-73.3554896602,5.5399515492,13,169883
530,2017,BOYACA,15,TURMEQUE,15835,-73.4918448747,5.32325210287,1,6097
531,2017,BOYACA,15,UMBITA,15842,-73.4569158202,5.2211724175,1,7534
532,2017,BOYACA,15,VILLA DE LEYVA,15407,-73.5246858959,5.63265703354,2,15769
533,2017,BOYACA,15,VIRACACHA,15879,-73.2969005657,5.43678857653,2,2830
534,2017,CALDAS,17,AGUADAS,17013,-75.454871642,5.61024846724,2,22989
535,2017,CALDAS,17,ANSERMA,17042,-75.784340784,5.23647611674,6,35943
536,2017,CALDAS,17,ARANZAZU,17050,-75.4912889044,5.27119632374,1,10596
537,2017,CALDAS,17,CHINCHINA,17174,-75.6074818919,4.98581250175,4,50947
538,2017,CALDAS,17,LA DORADA,17380,-74.6684167053,5.46047440177,5,71169
539,2017,CALDAS,17,LA MERCED,17388,-75.5465723441,5.3963721836,1,6149
540,2017,CALDAS,17,MANIZALES,17001,-75.4910467146,5.05768733557,37,429333
541,2017,CALDAS,17,MANZANARES,17433,-75.1528372887,5.25570837762,1,18244
542,2017,CALDAS,17,PALESTINA,17524,-75.6244642214,5.01783945198,1,15616
543,2017,CALDAS,17,PENSILVANIA,17541,-75.1603002765,5.38327868783,1,20130
544,2017,CALDAS,17,RIOSUCIO,17614,-75.7020653762,5.42367236012,4,49685
545,2017,CALDAS,17,SAMANA,17662,-74.9922442639,5.41308071675,2,20750
546,2017,CALDAS,17,SUPIA,17777,-75.6496602648,5.44683429424,2,28245
547,2017,CAQUETA,18,CARTAGENA DEL CHAIRA,18150,-74.847245546,1.3331165659,4,29892
548,2017,CAQUETA,18,FLORENCIA,18001,-75.6085597398,1.61792408755,12,167802
549,2017,CAQUETA,18,LA MONTANITA,18410,-75.4364058573,1.4791703207,1,14730
550,2017,CAQUETA,18,MILAN,18460,-75.5069587121,1.29041194077,1,9680
551,2017,CAQUETA,18,PUERTO RICO,18592,-75.1574899204,1.90893446756,1,26841
552,2017,CAQUETA,18,SAN VICENTE DEL CAGUAN,18753,-74.768675935,2.119492544,4,50280
553,2017,CAQUETA,18,SOLANO,18756,-75.2537069229,0.69897426193,1,11085
554,2017,CASANARE,85,HATO COROZAL,85125,-71.7649240225,6.15617263862,1,12149
555,2017,CASANARE,85,OROCUE,85230,-71.3385186268,4.79026959264,1,12029
556,2017,CASANARE,85,PORE,85263,-71.9928594902,5.72773022764,1,11736
557,2017,CASANARE,85,TAMARA,85400,-72.161823137,5.82982360982,1,6868
558,2017,CASANARE,85,TAURAMENA,85410,-72.7472511701,5.01920691152,1,22946
559,2017,CASANARE,85,TRINIDAD,85430,-71.6633415586,5.41221523214,1,12968
560,2017,CASANARE,85,VILLANUEVA,85440,-72.9280536201,4.61007185165,1,34513
561,2017,CASANARE,85,YOPAL,85001,-72.3969155417,5.32761201728,11,164295
562,2017,CAUCA,19,ARGELIA,19050,-77.2494517909,2.2567543324,1,25905
563,2017,CAUCA,19,BALBOA,19075,-77.2158965955,2.04048647608,1,21010
564,2017,CAUCA,19,BUENOS AIRES,19110,-76.64227784,3.01543022433,2,30992
565,2017,CAUCA,19,CAJIBIO,19130,-76.5708848354,2.62334023515,2,41879
566,2017,CAUCA,19,CALDONO,19137,-76.4844459642,2.79812829791,2,39247
567,2017,CAUCA,19,EL TAMBO,19256,-76.8107676072,2.45137293838,1,53625
568,2017,CAUCA,19,GUACHENE,19300,-76.3921808995,3.13415024191,2,19934
569,2017,CAUCA,19,INZA,19355,-76.0634951224,2.54918501375,1,28509
570,2017,CAUCA,19,LA SIERRA,19392,-76.7632016273,2.17932480074,1,10807
571,2017,CAUCA,19,MORALES,19473,-76.6292210027,2.75455782584,1,38181
572,2017,CAUCA,19,PATIA,19532,-77.053281163,2.06919819073,2,36716
573,2017,CAUCA,19,POPAYAN,19001,-76.5988923721,2.45994897276,27,314054
574,2017,CAUCA,19,SANTA ROSA,19701,-76.5739728417,1.70241741098,1,5390
575,2017,CAUCA,19,SANTANDER DE QUILICHAO,19698,-76.4853693048,3.0160508863,7,109215
576,2017,CAUCA,19,SILVIA,19743,-76.3795694468,2.611815128,2,36670
577,2017,CAUCA,19,SUAREZ,19780,-76.6934495691,2.95970043631,1,31587
578,2017,CAUCA,19,SUCRE,19785,-76.9262768869,2.0382579101,1,9487
579,2017,CAUCA,19,TIMBIO,19807,-76.6842365775,2.34997651977,2,35164
580,2017,CAUCA,19,TIMBIQUI,19809,-77.6675621458,2.77741263243,1,25797
581,2017,CESAR,20,AGUACHICA,20011,-73.6129927186,8.30735417168,8,106119
582,2017,CESAR,20,AGUSTIN CODAZZI,20013,-73.2383965158,10.040457318,2,59134
583,2017,CESAR,20,BOSCONIA,20060,-73.888765758,9.975094669,2,38855
584,2017,CESAR,20,CHIRIGUANA,20178,-73.600147529,9.36118941734,3,26787
585,2017,CESAR,20,EL COPEY,20238,-73.9627178522,10.1495254704,2,29429
586,2017,CESAR,20,GAMARRA,20295,-73.7380076768,8.32432947636,4,14556
587,2017,CESAR,20,GONZALEZ,20310,-73.380042178,8.38960324723,1,4421
588,2017,CESAR,20,LA GLORIA,20383,-73.8032098836,8.61929805971,1,16509
589,2017,CESAR,20,LA JAGUA DE IBIRICO,20400,-73.3342269159,9.56388783532,1,44961
590,2017,CESAR,20,PAILITAS,20517,-73.6257673178,8.95939949775,1,18050
591,2017,CESAR,20,PELAYA,20550,-73.6663564352,8.68865050982,1,20007
592,2017,CESAR,20,PUEBLO BELLO,20570,-73.5862472969,10.4172860694,1,25940
593,2017,CESAR,20,RIO DE ORO,20614,-73.3863920498,8.29228968373,1,16303
594,2017,CESAR,20,SAN ALBERTO,20710,-73.3942253371,7.76082444485,2,25410
595,2017,CESAR,20,SAN MARTIN,20770,-73.5109750558,7.99989421258,2,25687
596,2017,CESAR,20,VALLEDUPAR,20001,-73.2593904181,10.4604806696,23,474596
597,2017,CHOCO,27,RIOSUCIO,27615,-77.1131097247,7.43663369807,1,51564
598,2017,CHOCO,27,SIPI,27745,-76.6444041851,4.65120437592,1,3158
599,2017,CORDOBA,23,BUENAVISTA,23079,-75.4808968789,8.22116707849,1,20857
600,2017,CORDOBA,23,LA APARTADA,23350,-75.3357616802,8.04990063857,2,14921
601,2017,CORDOBA,23,MOMIL,23464,-75.6779588318,9.24071061295,1,19318
602,2017,CORDOBA,23,MONITOS,23500,-76.1293957384,9.24527627335,1,29258
603,2017,CORDOBA,23,MONTELIBANO,23466,-75.4168167918,7.97377871713,4,80113
604,2017,CORDOBA,23,MONTERIA,23001,-75.8732573059,8.75981523965,27,484400
605,2017,CORDOBA,23,PUERTO LIBERTADOR,23580,-75.6718011007,7.88883325281,1,40979
606,2017,CORDOBA,23,PURISIMA DE LA CONCEPCION,23586,-75.7248856036,9.23929988718,2,16996
607,2017,CORDOBA,23,SAHAGUN,23660,-75.4459201696,8.94312756605,1,106377
608,2017,CORDOBA,23,SAN ANTERO,23672,-75.7607741431,9.37621656532,3,33391
609,2017,CORDOBA,23,SAN PELAYO,23686,-75.8351254915,8.95800878711,1,51486
610,2017,CORDOBA,23,TUCHIN,23815,-75.5538706654,9.18656992554,1,50931
611,2017,CUNDINAMARCA,25,AGUA DE DIOS,25001,-74.6692192503,4.37531467846,1,11325
612,2017,CUNDINAMARCA,25,ANAPOIMA,25035,-74.5285181395,4.562955419,1,13817
613,2017,CUNDINAMARCA,25,ARBELAEZ,25053,-74.4148233831,4.27248220101,1,10866
614,2017,CUNDINAMARCA,25,BOJACA,25099,-74.3445936942,4.73720453576,1,9393
615,2017,CUNDINAMARCA,25,CAJICA,25126,-74.0234537112,4.92081005268,3,77498
616,2017,CUNDINAMARCA,25,CAPARRAPI,25148,-74.4911179964,5.34794115431,1,12358
617,2017,CUNDINAMARCA,25,CAQUEZA,25151,-73.9464770211,4.4040950188,1,16566
618,2017,CUNDINAMARCA,25,CARMEN DE CARUPA,25154,-73.901570514,5.34911594802,1,7430
619,2017,CUNDINAMARCA,25,CHIA,25175,-74.0503469604,4.86606490054,6,124575
620,2017,CUNDINAMARCA,25,CHIPAQUE,25178,-74.0448735948,4.44267057023,1,9170
621,2017,CUNDINAMARCA,25,CHOACHI,25181,-73.9228969985,4.52704366102,1,10671
622,2017,CUNDINAMARCA,25,COTA,25214,-74.1027271672,4.81298461,2,30816
623,2017,CUNDINAMARCA,25,EL ROSAL,25260,-74.2630068618,4.85053609442,3,20874
624,2017,CUNDINAMARCA,25,FACATATIVA,25269,-74.3502169563,4.81303164667,13,131825
625,2017,CUNDINAMARCA,25,FOMEQUE,25279,-73.8925231,4.48547472611,2,11633
626,2017,CUNDINAMARCA,25,FUNZA,25286,-74.2014894559,4.71038172914,2,87727
627,2017,CUNDINAMARCA,25,FUSAGASUGA,25290,-74.3754601635,4.33667468248,4,131214
628,2017,CUNDINAMARCA,25,GACHALA,25293,-73.5201588297,4.69357747191,1,4432
629,2017,CUNDINAMARCA,25,GACHANCIPA,25295,-73.8734668101,4.99091874874,1,16012
630,2017,CUNDINAMARCA,25,GIRARDOT,25307,-74.7977961492,4.31307939531,5,96694
631,2017,CUNDINAMARCA,25,GRANADA,25312,-74.3507638172,4.51976536572,1,6846
632,2017,CUNDINAMARCA,25,GUACHETA,25317,-73.6870945845,5.38374153344,1,12819
633,2017,CUNDINAMARCA,25,GUADUAS,25320,-74.6029553866,5.07187008998,3,29273
634,2017,CUNDINAMARCA,25,GUASCA,25322,-73.8771423949,4.86671913331,2,14799
635,2017,CUNDINAMARCA,25,GUATAQUI,25324,-74.7899684165,4.5174185796,1,2762
636,2017,CUNDINAMARCA,25,GUAYABAL DE SIQUIMA,25328,-74.4674372775,4.87796944798,1,4287
637,2017,CUNDINAMARCA,25,LA CALERA,25377,-73.967966495,4.72138578652,1,28462
638,2017,CUNDINAMARCA,25,LA MESA,25386,-74.4615492187,4.63104312817,2,31113
639,2017,CUNDINAMARCA,25,LA VEGA,25402,-74.331153833,4.993079959,1,16198
640,2017,CUNDINAMARCA,25,MADRID,25430,-74.2637266314,4.73273240481,3,105545
641,2017,CUNDINAMARCA,25,MEDINA,25438,-73.3491229581,4.50661521497,1,7928
642,2017,CUNDINAMARCA,25,MOSQUERA,25473,-74.2193416046,4.70701024824,2,121719
643,2017,CUNDINAMARCA,25,NARINO,25483,-74.8247329958,4.39983661649,1,2280
644,2017,CUNDINAMARCA,25,NILO,25488,-74.6199683585,4.30580601104,1,10248
645,2017,CUNDINAMARCA,25,PACHO,25513,-74.156116064,5.13694532224,3,23660
646,2017,CUNDINAMARCA,25,PANDI,25524,-74.4866421835,4.19039063967,1,4826
647,2017,CUNDINAMARCA,25,PASCA,25535,-74.3024837134,4.30905937901,1,8841
648,2017,CUNDINAMARCA,25,PUERTO SALGAR,25572,-74.6537031753,5.46542650967,3,14827
649,2017,CUNDINAMARCA,25,QUIPILE,25596,-74.5337016265,4.74480125713,1,6220
650,2017,CUNDINAMARCA,25,SAN ANTONIO DEL TEQUENDAMA,25645,-74.3514505895,4.61613464307,2,11428
651,2017,CUNDINAMARCA,25,SAN JUAN DE RIOSECO,25662,-74.6219134166,4.84757915971,1,7988
652,2017,CUNDINAMARCA,25,SASAIMA,25718,-74.4326283935,4.96216463559,1,10326
653,2017,CUNDINAMARCA,25,SIBATE,25740,-74.2578772349,4.49261081381,2,31838
654,2017,CUNDINAMARCA,25,SILVANIA,25743,-74.4055246172,4.3819448056,4,20787
655,2017,CUNDINAMARCA,25,SOACHA,25754,-74.2154309452,4.57939176705,31,618820
656,2017,CUNDINAMARCA,25,SOPO,25758,-73.9433295095,4.91539965901,4,24360
657,2017,CUNDINAMARCA,25,SUBACHOQUE,25769,-74.1727096099,4.92907887681,1,15231
658,2017,CUNDINAMARCA,25,SUPATA,25777,-74.2354038495,5.06161647674,2,5061
659,2017,CUNDINAMARCA,25,SUTATAUSA,25781,-73.853153077,5.24748742315,2,5638
660,2017,CUNDINAMARCA,25,TABIO,25785,-74.0961796864,4.91720363832,2,20541
661,2017,CUNDINAMARCA,25,TENA,25797,-74.3895411831,4.65532786239,2,9135
662,2017,CUNDINAMARCA,25,TOCAIMA,25815,-74.6363056249,4.45927226504,3,15291
663,2017,CUNDINAMARCA,25,TOCANCIPA,25817,-73.9120940816,4.96478385194,2,37633
664,2017,CUNDINAMARCA,25,UNE,25845,-74.0251807261,4.40245072334,1,6700
665,2017,CUNDINAMARCA,25,VENECIA,25506,-74.4781884861,4.0889533173,1,4126
666,2017,CUNDINAMARCA,25,VILLA DE SAN DIEGO DE UBATE,25843,-73.814345661,5.30754135963,2,40431
667,2017,CUNDINAMARCA,25,ZIPACON,25898,-74.3795933564,4.75992897105,1,4501
668,2017,CUNDINAMARCA,25,ZIPAQUIRA,25899,-73.9944757558,5.02547142431,7,123742
669,2017,GUAINIA,94,INIRIDA,94001,-67.9186012392,3.86662347201,2,30289
670,2017,GUAVIARE,95,CALAMAR,95015,-72.6551728661,1.96010887255,1,9264
671,2017,GUAVIARE,95,SAN JOSE DEL GUAVIARE,95001,-72.6390287201,2.56608342423,2,51509
672,2017,HUILA,41,AIPE,41016,-75.2390312259,3.22359766887,1,15953
673,2017,HUILA,41,ALGECIRAS,41020,-75.3153713579,2.52244696827,1,22353
674,2017,HUILA,41,CAMPOALEGRE,41132,-75.325759412,2.6868370205,2,30926
675,2017,HUILA,41,GARZON,41298,-75.6270510273,2.1964533881,5,71433
676,2017,HUILA,41,GIGANTE,41306,-75.5476811212,2.38403102318,3,24383
677,2017,HUILA,41,GUADALUPE,41319,-75.7570381788,2.0241600111,1,17620
678,2017,HUILA,41,LA ARGENTINA,41378,-75.9797673085,2.19824600615,1,12707
679,2017,HUILA,41,LA PLATA,41396,-75.8914521307,2.3896474978,7,60232
680,2017,HUILA,41,NEIVA,41001,-75.2777314808,2.93555887476,24,352999
681,2017,HUILA,41,OPORAPA,41503,-75.9951786162,2.02505692943,1,11467
682,2017,HUILA,41,PALERMO,41524,-75.4348239701,2.88937485898,1,25946
683,2017,HUILA,41,PALESTINA,41530,-76.1330745868,1.72344447572,4,11027
684,2017,HUILA,41,PITALITO,41551,-76.0490044984,1.85297434352,7,122182
685,2017,HUILA,41,RIVERA,41615,-75.258550208,2.77757018071,4,23932
686,2017,HUILA,41,SALADOBLANCO,41660,-76.0447691689,1.99319375367,2,10353
687,2017,HUILA,41,SAN AGUSTIN,41668,-76.2703587983,1.8810855128,5,32585
688,2017,HUILA,41,SANTA MARIA,41676,-75.5861244534,2.93974915231,2,10344
689,2017,HUILA,41,TARQUI,41791,-75.8235763181,2.11132341997,1,17243
690,2017,HUILA,41,TIMANA,41807,-75.9320853384,1.97422503882,2,21563
691,2017,HUILA,41,YAGUARA,41885,-75.5180231181,2.66469363692,1,7637
692,2017,MAGDALENA,47,ARACATACA,47053,-74.1867609537,10.5897988592,1,38877
693,2017,MAGDALENA,47,CIENAGA,47189,-74.2412855651,11.0066586077,4,118322
694,2017,MAGDALENA,47,EL BANCO,47245,-73.9742847149,9.0087359751,4,63918
695,2017,MAGDALENA,47,EL PINON,47258,-74.8232919445,10.4030943537,1,21823
696,2017,MAGDALENA,47,EL RETEN,47268,-74.2684546741,10.6106681998,1,19264
697,2017,MAGDALENA,47,FUNDACION,47288,-74.1913417387,10.5140917977,8,64852
698,2017,MAGDALENA,47,GUAMAL,47318,-74.2236997384,9.14438638111,3,26054
699,2017,MAGDALENA,47,PLATO,47555,-74.784684214,9.79677054749,3,60142
700,2017,MAGDALENA,47,REMOLINO,47605,-74.716139312,10.7021709717,1,11237
701,2017,MAGDALENA,47,SAN SEBASTIAN DE BUENAVISTA,47692,-74.3516789515,9.24078172832,1,19003
702,2017,MAGDALENA,47,SANTA MARTA,47001,-74.2002109893,11.2047725963,16,486246
703,2017,MAGDALENA,47,TENERIFE,47798,-74.8607737651,9.8977882091,1,13032
704,2017,META,50,ACACIAS,50006,-73.7659360698,3.99012009704,4,86156
705,2017,META,50,CUMARAL,50226,-73.4861069057,4.26953744789,1,22501
706,2017,META,50,EL CALVARIO,50245,-73.7133268969,4.35261856617,1,1768
707,2017,META,50,EL CASTILLO,50251,-73.7940123336,3.56383333473,1,7994
708,2017,META,50,GRANADA,50313,-73.7057158517,3.5466952856,3,67735
709,2017,META,50,GUAMAL,50318,-73.7699625676,3.88014002777,2,13853
710,2017,META,50,LA MACARENA,50350,-73.7870674795,2.17821444079,1,26129
711,2017,META,50,MAPIRIPAN,50325,-72.1356448716,2.89643885969,1,6986
712,2017,META,50,MESETAS,50330,-74.0443712626,3.38325958558,1,11113
713,2017,META,50,PUERTO CONCORDIA,50450,-72.7600452582,2.62308359227,1,8362
714,2017,META,50,PUERTO GAITAN,50568,-72.083078729,4.314485152,1,40428
715,2017,META,50,PUERTO LOPEZ,50573,-72.9574366102,4.09340699377,1,30016
716,2017,META,50,PUERTO RICO,50590,-73.2065146907,2.93974329234,1,13033
717,2017,META,50,RESTREPO,50606,-73.5646064827,4.26072972714,3,17895
718,2017,META,50,SAN CARLOS DE GUAROA,50680,-73.2414110088,3.71053695717,2,12064
719,2017,META,50,SAN JUAN DE ARAMA,50683,-73.8758311729,3.37372791392,1,9111
720,2017,META,50,SAN MARTIN,50689,-73.6956173593,3.70188012803,1,26431
721,2017,META,50,VILLAVICENCIO,50001,-73.624562528,4.1238593011,32,521700
722,2017,META,50,VISTAHERMOSA,50711,-73.7510280336,3.1256671671,2,17688
723,2017,NARINO,52,ALDANA,52022,-77.7003576715,0.882181786542,1,7355
724,2017,NARINO,52,BARBACOAS,52079,-78.1375768702,1.67144343524,2,54839
725,2017,NARINO,52,EL TABLON DE GOMEZ,52258,-77.0967278598,1.42704940171,1,14256
726,2017,NARINO,52,FUNES,52287,-77.4489750806,1.00113044411,1,7179
727,2017,NARINO,52,GUAITARILLA,52320,-77.5496855022,1.12963027843,1,11573
728,2017,NARINO,52,IMUES,52354,-77.4961681198,1.05513327782,3,7631
729,2017,NARINO,52,IPIALES,52356,-77.6463999012,0.827735060636,12,115348
730,2017,NARINO,52,LEIVA,52405,-77.3062024933,1.93451165112,1,9776
731,2017,NARINO,52,OSPINA,52506,-77.5660692089,1.05849067089,1,7099
732,2017,NARINO,52,POLICARPA,52540,-77.458755671,1.62734987378,1,9875
733,2017,NARINO,52,SANDONA,52683,-77.4730451357,1.28314414356,1,21146
734,2017,NARINO,52,SAPUYES,52720,-77.6202980414,1.03752383941,1,7317
735,2017,NARINO,52,TUQUERRES,52838,-77.6168833378,1.08519299564,3,44649
736,2017,PUTUMAYO,86,MOCOA,86001,-76.6515068624,1.1525800991,2,54898
737,2017,PUTUMAYO,86,ORITO,86320,-76.8730276477,0.663818348772,4,36979
738,2017,PUTUMAYO,86,PUERTO ASIS,86568,-76.4972710861,0.505047577006,6,63570
739,2017,PUTUMAYO,86,PUERTO CAICEDO,86569,-76.6057791692,0.6877836264,1,15824
740,2017,PUTUMAYO,86,SANTIAGO,86760,-77.0021350607,1.14728349518,1,7160
741,2017,PUTUMAYO,86,SIBUNDOY,86749,-76.9174823545,1.20011541585,3,14642
742,2017,PUTUMAYO,86,VILLAGARZON,86885,-76.6171636979,1.02893997049,3,23268
743,2017,QUINDIO,63,ARMENIA,63001,-75.6807545438,4.535987208,30,291698
744,2017,QUINDIO,63,BUENAVISTA,63111,-75.7395664635,4.36002504159,2,3045
745,2017,QUINDIO,63,CALARCA,63130,-75.6455330683,4.52148797904,4,71942
746,2017,QUINDIO,63,CIRCASIA,63190,-75.6365262734,4.61779473259,6,27834
747,2017,QUINDIO,63,CORDOBA,63212,-75.6878697204,4.39248649385,1,5578
748,2017,QUINDIO,63,FILANDIA,63272,-75.6586823883,4.67414703386,1,12008
749,2017,QUINDIO,63,GENOVA,63302,-75.790631528,4.20651089858,2,7568
750,2017,QUINDIO,63,LA TEBAIDA,63401,-75.786460159,4.45365278508,1,32928
751,2017,QUINDIO,63,MONTENEGRO,63470,-75.7498287033,4.56505578418,4,36392
752,2017,QUINDIO,63,PIJAO,63548,-75.7033166279,4.33504179687,2,5250
753,2017,QUINDIO,63,QUIMBAYA,63594,-75.7650742652,4.62438412181,2,30654
754,2017,QUINDIO,63,SALENTO,63690,-75.5708458112,4.63715372291,1,9069
755,2017,RISARALDA,66,APIA,66045,-75.942359483,5.10652456009,1,12468
756,2017,RISARALDA,66,DOSQUEBRADAS,66170,-75.6761693197,4.83402887527,11,214163
757,2017,RISARALDA,66,LA VIRGINIA,66400,-75.8802026174,4.89654777308,1,27943
758,2017,RISARALDA,66,MARSELLA,66440,-75.7385816147,4.93556204249,4,17058
759,2017,RISARALDA,66,PEREIRA,66001,-75.7190152322,4.80532287092,38,462668
760,2017,RISARALDA,66,PUEBLO RICO,66572,-76.0306678019,5.22191328206,1,15943
761,2017,RISARALDA,66,SANTA ROSA DE CABAL,66682,-75.6234918103,4.87640374593,6,77472
762,2017,RISARALDA,66,SANTUARIO,66687,-75.9645220611,5.07493802723,1,12751
763,2017,SANTANDER,68,BARICHARA,68079,-73.2230998455,6.63423130708,1,10266
764,2017,SANTANDER,68,BARRANCABERMEJA,68081,-73.8499567312,7.06496573153,28,200583
765,2017,SANTANDER,68,BETULIA,68092,-73.2836713462,6.89952350256,1,5885
766,2017,SANTANDER,68,BOLIVAR,68101,-73.7713434117,5.98895175043,1,11479
767,2017,SANTANDER,68,BUCARAMANGA,68001,-73.1325976221,7.11626842734,27,570253
768,2017,SANTANDER,68,CARCASI,68152,-72.627083427,6.6287276598,1,4282
769,2017,SANTANDER,68,CHARALA,68167,-73.1468716584,6.28434433944,2,12318
770,2017,SANTANDER,68,CHARTA,68169,-72.9687942408,7.28081908866,1,2862
771,2017,SANTANDER,68,CHIMA,68176,-73.3737319916,6.34435038365,1,2853
772,2017,SANTANDER,68,CIMITARRA,68190,-73.9525715248,6.32063022524,1,32236
773,2017,SANTANDER,68,CONCEPCION,68207,-72.694595635,6.76883643116,1,5727
774,2017,SANTANDER,68,EL CARMEN DE CHUCURI,68235,-73.511267745,6.697907475,3,20579
775,2017,SANTANDER,68,EL PLAYON,68255,-73.2028762556,7.47071669899,1,13543
776,2017,SANTANDER,68,FLORIAN,68271,-73.9714235605,5.80465898835,1,5563
777,2017,SANTANDER,68,FLORIDABLANCA,68276,-73.0990307075,7.07236450273,10,285508
778,2017,SANTANDER,68,GALAN,68296,-73.2877642173,6.638415125,1,2860
779,2017,SANTANDER,68,GAMBITA,68298,-73.3441797754,5.94597839459,1,4019
780,2017,SANTANDER,68,GIRON,68307,-73.1667133582,7.07052391696,11,156057
781,2017,SANTANDER,68,GUACA,68318,-72.8563231479,6.87656058399,1,5973
782,2017,SANTANDER,68,GUAVATA,68324,-73.7008028162,5.95413334223,1,4267
783,2017,SANTANDER,68,GUEPSA,68327,-73.5748541849,6.02517506342,1,5032
784,2017,SANTANDER,68,LANDAZURI,68385,-73.8110930176,6.21874730469,2,10289
785,2017,SANTANDER,68,LEBRIJA,68406,-73.2195525933,7.11335571687,3,40880
786,2017,SANTANDER,68,MALAGA,68432,-72.7323808831,6.70305452003,1,20596
787,2017,SANTANDER,68,MOGOTES,68464,-72.9698135047,6.47521108164,1,10499
788,2017,SANTANDER,68,MOLAGAVITA,68468,-72.8094754311,6.6743545443,1,4240
789,2017,SANTANDER,68,ONZAGA,68502,-72.8167547282,6.34409903428,1,4300
790,2017,SANTANDER,68,PIEDECUESTA,68547,-73.0545933904,6.99735677431,10,165817
791,2017,SANTANDER,68,PUENTE NACIONAL,68572,-73.6781328396,5.87796256489,2,14535
792,2017,SANTANDER,68,PUERTO PARRA,68573,-74.0560908372,6.65080789008,3,7524
793,2017,SANTANDER,68,PUERTO WILCHES,68575,-73.899334022,7.349066143,1,32165
794,2017,SANTANDER,68,RIONEGRO,68615,-73.150142083,7.26500895024,3,26212
795,2017,SANTANDER,68,SABANA DE TORRES,68655,-73.4990518794,7.39191179389,1,32393
796,2017,SANTANDER,68,SAN ANDRES,68669,-72.8489688078,6.81150917867,1,8757
797,2017,SANTANDER,68,SAN GIL,68679,-73.1351665257,6.55295530633,5,54868
798,2017,SANTANDER,68,SAN JOSE DE MIRANDA,68684,-72.7336238268,6.6589966561,1,4448
799,2017,SANTANDER,68,SAN VICENTE DE CHUCURI,68689,-73.4110187818,6.88037882713,1,33011
800,2017,SANTANDER,68,SOCORRO,68755,-73.2611960328,6.46385144732,1,31615
801,2017,SANTANDER,68,SUAITA,68770,-73.438416356,6.10353145,1,9918
802,2017,SANTANDER,68,SUCRE,68773,-73.79097771,5.91874038228,1,7294
803,2017,SANTANDER,68,VELEZ,68861,-73.666299069,6.010953449,2,23846
804,2017,SANTANDER,68,ZAPATOCA,68895,-73.2679103601,6.81433905181,2,9452
805,2017,SUCRE,70,BUENAVISTA,70110,-74.9730193151,9.31985711931,2,10251
806,2017,SUCRE,70,CHALAN,70230,-75.3126950363,9.54535812429,1,4377
807,2017,SUCRE,70,COROZAL,70215,-75.2931493701,9.31910061656,2,66353
808,2017,SUCRE,70,EL ROBLE,70233,-75.1984347707,9.10066970519,1,9956
809,2017,SUCRE,70,GALERAS,70235,-75.0494186572,9.15967339965,1,21439
810,2017,SUCRE,70,LOS PALMITOS,70418,-75.268750942,9.3802289505,1,22469
811,2017,SUCRE,70,MORROA,70473,-75.306200083,9.33132173665,1,14761
812,2017,SUCRE,70,OVEJAS,70508,-75.2290829562,9.52668815702,1,22677
813,2017,SUCRE,70,SAN ONOFRE,70713,-75.5230283613,9.7369328609,1,48951
814,2017,SUCRE,70,SAN PEDRO,70717,-75.0634845353,9.39596570901,1,18382
815,2017,SUCRE,70,SINCELEJO,70001,-75.395481772,9.30233021687,16,272534
816,2017,SUCRE,70,TOLU VIEJO,70823,-75.4408214257,9.45183874964,2,20900
817,2017,TOLIMA,73,ANZOATEGUI,73043,-75.093777187,4.63175549718,2,10151
818,2017,TOLIMA,73,CAJAMARCA,73124,-75.435485263,4.436677041,4,18517
819,2017,TOLIMA,73,CARMEN DE APICALA,73148,-74.7163719929,4.15094359506,1,9981
820,2017,TOLIMA,73,CHAPARRAL,73168,-75.4807434103,3.72306834875,1,50232
821,2017,TOLIMA,73,COYAIMA,73217,-75.193878839,3.79803620302,1,22793
822,2017,TOLIMA,73,CUNDAY,73226,-74.6922267118,4.05925948571,2,8930
823,2017,TOLIMA,73,DOLORES,73236,-74.8968518333,3.53903159826,1,8393
824,2017,TOLIMA,73,FLANDES,73275,-74.8187677213,4.2763717138,2,28376
825,2017,TOLIMA,73,FRESNO,73283,-75.0356196095,5.15363945469,2,31035
826,2017,TOLIMA,73,GUAMO,73319,-74.9681289601,4.03100475679,1,33026
827,2017,TOLIMA,73,HERVEO,73347,-75.1771319171,5.08023410848,1,7419
828,2017,TOLIMA,73,HONDA,73349,-74.741577974,5.2015089,4,24925
829,2017,TOLIMA,73,IBAGUE,73001,-75.1953679078,4.43280938914,40,525076
830,2017,TOLIMA,73,ICONONZO,73352,-74.5319791006,4.17643908974,2,11852
831,2017,TOLIMA,73,LERIDA,73408,-74.9106356889,4.86202531088,3,18510
832,2017,TOLIMA,73,LIBANO,73411,-75.0619532821,4.92041843293,3,37023
833,2017,TOLIMA,73,MELGAR,73449,-74.6409314721,4.20394596681,2,36193
834,2017,TOLIMA,73,MURILLO,73461,-75.1710222819,4.87434134976,1,4127
835,2017,TOLIMA,73,NATAGAIMA,73483,-75.0931111288,3.62438908901,1,15067
836,2017,TOLIMA,73,ORTEGA,73504,-75.2226023939,3.93491661562,2,34429
837,2017,TOLIMA,73,PALOCABILDO,73520,-75.02222013,5.1208856555,2,9863
838,2017,TOLIMA,73,PLANADAS,73555,-75.6439602657,3.19765191111,2,25672
839,2017,TOLIMA,73,RONCESVALLES,73622,-75.6059994575,4.01159480735,1,5466
840,2017,TOLIMA,73,ROVIRA,73624,-75.2408706668,4.2389330111,4,21800
841,2017,TOLIMA,73,SANTA ISABEL,73686,-75.0979346338,4.71359930225,1,5782
842,2017,VAUPES,97,CARURU,97161,-71.297793263,1.014600462,1,2871
843,2017,VAUPES,97,MITU,97001,-70.2347514774,1.25118655571,5,29067
844,2018,AMAZONAS,91,LETICIA,91001,-69.9415818923,-4.19844539201,4,48144
845,2018,ANTIOQUIA,5,ABEJORRAL,5002,-75.4287403904,5.78930111433,4,20367
846,2018,ANTIOQUIA,5,AMAGA,5030,-75.7019483389,6.03880842381,3,30227
847,2018,ANTIOQUIA,5,AMALFI,5031,-75.0774749239,6.90967360478,1,25962
848,2018,ANTIOQUIA,5,ANDES,5034,-75.878794075,5.65676971311,6,43269
849,2018,ANTIOQUIA,5,ANORI,5040,-75.1483449609,7.07471004137,1,18321
850,2018,ANTIOQUIA,5,ANZA,5044,-75.854448759,6.3026667644,1,7010
851,2018,ANTIOQUIA,5,APARTADO,5045,-76.6258909217,7.88325108195,8,121003
852,2018,ANTIOQUIA,5,ARBOLETES,5051,-76.4266581639,8.84991827334,1,29295
853,2018,ANTIOQUIA,5,BARBOSA,5079,-75.3316403017,6.4392260115,6,51969
854,2018,ANTIOQUIA,5,BELLO,5088,-75.5546673053,6.33406558292,22,522264
855,2018,ANTIOQUIA,5,BETULIA,5093,-75.9845155699,6.11525553285,1,15607
856,2018,ANTIOQUIA,5,BRICENO,5107,-75.550356304,7.11280551402,1,8039
857,2018,ANTIOQUIA,5,BURITICA,5113,-75.9070561536,6.72064775464,1,9354
858,2018,ANTIOQUIA,5,CALDAS,5129,-75.6336168248,6.09129760323,13,79638
859,2018,ANTIOQUIA,5,CAREPA,5147,-76.653210744,7.75511548219,2,47932
860,2018,ANTIOQUIA,5,CAUCASIA,5154,-75.1982784645,7.97734097812,6,90213
861,2018,ANTIOQUIA,5,CHIGORODO,5172,-76.6812146131,7.66630069082,3,57375
862,2018,ANTIOQUIA,5,CIUDAD BOLIVAR,5101,-76.0215106815,5.85027282845,3,26118
863,2018,ANTIOQUIA,5,COPACABANA,5212,-75.5093435119,6.34863947056,5,77884
864,2018,ANTIOQUIA,5,DABEIBA,5234,-76.2616178227,6.99811575168,3,23044
865,2018,ANTIOQUIA,5,DONMATIAS,5237,-75.3926751288,6.48560723899,2,18902
866,2018,ANTIOQUIA,5,EBEJICO,5240,-75.7662136607,6.32605663471,1,12158
867,2018,ANTIOQUIA,5,EL CARMEN DE VIBORAL,5148,-75.3342620232,6.08347326731,6,59416
868,2018,ANTIOQUIA,5,EL SANTUARIO,5697,-75.2654679804,6.13685720436,7,35422
869,2018,ANTIOQUIA,5,ENTRERRIOS,5264,-75.517805693,6.56648234736,3,11159
870,2018,ANTIOQUIA,5,ENVIGADO,5266,-75.5830089369,6.16700589298,16,228848
871,2018,ANTIOQUIA,5,FREDONIA,5282,-75.6750932516,5.9280855467,3,24408
872,2018,ANTIOQUIA,5,FRONTINO,5284,-76.1307652118,6.77606285319,1,20739
873,2018,ANTIOQUIA,5,GIRALDO,5306,-75.9521573015,6.68080793863,1,5544
874,2018,ANTIOQUIA,5,GIRARDOTA,5308,-75.4444597681,6.37961535607,2,51662
875,2018,ANTIOQUIA,5,GRANADA,5313,-75.1844500639,6.1429023597,1,10117
876,2018,ANTIOQUIA,5,GUADALUPE,5315,-75.2398564806,6.81506996357,1,6560
877,2018,ANTIOQUIA,5,GUARNE,5318,-75.4416535712,6.27802696108,4,55121
878,2018,ANTIOQUIA,5,GUATAPE,5321,-75.1600208818,6.23240969843,1,8363
879,2018,ANTIOQUIA,5,HELICONIA,5347,-75.7343322889,6.20676229056,1,5451
880,2018,ANTIOQUIA,5,ITAGUI,5360,-75.6120815283,6.174929734,7,276744
881,2018,ANTIOQUIA,5,ITUANGO,5361,-75.7646752276,7.17163748398,4,27074
882,2018,ANTIOQUIA,5,JARDIN,5364,-75.8189807815,5.59753984677,4,14518
883,2018,ANTIOQUIA,5,LA CEJA,5376,-75.4294329272,6.02805465836,5,64889
884,2018,ANTIOQUIA,5,LA ESTRELLA,5380,-75.645190382,6.15841993,3,71545
885,2018,ANTIOQUIA,5,LA UNION,5400,-75.3608622911,5.97387113417,2,21475
886,2018,ANTIOQUIA,5,LIBORINA,5411,-75.8128326075,6.67732537607,2,10028
887,2018,ANTIOQUIA,5,MEDELLIN,5001,-75.5760017134,6.24858636743,172,2427129
888,2018,ANTIOQUIA,5,MONTEBELLO,5467,-75.5235098947,5.94632388294,1,6680
889,2018,ANTIOQUIA,5,MUTATA,5480,-76.4358758959,7.24287193339,3,13991
890,2018,ANTIOQUIA,5,NECHI,5495,-74.7764699611,8.09412977783,1,25790
891,2018,ANTIOQUIA,5,NECOCLI,5490,-76.784574497,8.426136098,1,42281
892,2018,ANTIOQUIA,5,OLAYA,5501,-75.8118744168,6.62660499706,1,3127
893,2018,ANTIOQUIA,5,PENOL,5541,-75.2428178132,6.21945021233,4,21049
894,2018,ANTIOQUIA,5,PUERTO BERRIO,5579,-74.4099459786,6.48703921007,4,39314
895,2018,ANTIOQUIA,5,RETIRO,5607,-75.5013756659,6.06338107129,2,23514
896,2018,ANTIOQUIA,5,RIONEGRO,5615,-75.3767667557,6.1472245313,8,135465
897,2018,ANTIOQUIA,5,SABANETA,5631,-75.6155845416,6.15096981767,5,82375
898,2018,ANTIOQUIA,5,SALGAR,5642,-75.982048544,5.965640311,1,18258
899,2018,ANTIOQUIA,5,SAN LUIS,5660,-74.9936401255,6.04298332565,2,12995
900,2018,ANTIOQUIA,5,SAN PEDRO DE LOS MILAGROS,5664,-75.5567189241,6.46013808244,3,21949
901,2018,ANTIOQUIA,5,SAN PEDRO DE URABA,5665,-76.3805785791,8.27688468914,1,30932
902,2018,ANTIOQUIA,5,SAN RAFAEL,5667,-75.0279828807,6.29375698332,1,15698
903,2018,ANTIOQUIA,5,SAN ROQUE,5670,-75.0191661484,6.48594047044,3,21519
904,2018,ANTIOQUIA,5,SANTA BARBARA,5679,-75.5673548634,5.87554181135,2,26784
905,2018,ANTIOQUIA,5,SANTA ROSA DE OSOS,5686,-75.460740037,6.64332643406,2,36318
906,2018,ANTIOQUIA,5,SANTO DOMINGO,5690,-75.1649580592,6.47283350377,2,12394
907,2018,ANTIOQUIA,5,SONSON,5756,-75.3093960124,5.7148075835,3,36321
908,2018,ANTIOQUIA,5,TAMESIS,5789,-75.7143199749,5.66446916892,2,16281
909,2018,ANTIOQUIA,5,TARAZA,5790,-75.4014092118,7.58011943984,2,26964
910,2018,ANTIOQUIA,5,TITIRIBI,5809,-75.791888749,6.06239757787,1,10775
911,2018,ANTIOQUIA,5,TOLEDO,5819,-75.6914357609,7.01015899618,1,4993
912,2018,ANTIOQUIA,5,TURBO,5837,-76.7291596582,8.08911317497,6,124552
913,2018,ANTIOQUIA,5,URRAO,5847,-76.1339511488,6.31731976564,1,30127
914,2018,ANTIOQUIA,5,VEGACHI,5858,-74.7987268739,6.77345020849,2,11810
915,2018,ANTIOQUIA,5,VENECIA,5861,-75.7355000679,5.96473060641,1,11602
916,2018,ANTIOQUIA,5,YARUMAL,5887,-75.4188327746,6.96387109143,3,41542
917,2018,ANTIOQUIA,5,YOLOMBO,5890,-75.0133479509,6.59459588827,1,22538
918,2018,ARAUCA,81,ARAUCA,81001,-70.748009803,7.07390170095,8,85585
919,2018,ARAUCA,81,CRAVO NORTE,81220,-70.2035859163,6.30345968824,1,3925
920,2018,ARAUCA,81,FORTUL,81300,-71.7685562393,6.79707707295,7,18938
921,2018,ARAUCA,81,SARAVENA,81736,-71.8723328706,6.95386030424,5,55554
922,2018,ARAUCA,81,TAME,81794,-71.7537617572,6.45344199261,7,43932
923,2018,ATLANTICO,8,BARANOA,8078,-74.916106093,10.7948815688,3,62382
924,2018,ATLANTICO,8,BARRANQUILLA,8001,-74.8132169683,10.9783195607,64,1206319
925,2018,ATLANTICO,8,GALAPA,8296,-74.8703439389,10.9191614915,4,60708
926,2018,ATLANTICO,8,LURUACO,8421,-75.1422887632,10.6111248118,2,28175
927,2018,ATLANTICO,8,MALAMBO,8433,-74.7748637454,10.856822692,2,128203
928,2018,ATLANTICO,8,MANATI,8436,-74.9570353895,10.4489620358,1,19808
929,2018,ATLANTICO,8,PALMAR DE VARELA,8520,-74.7547589307,10.7385825597,5,28932
930,2018,ATLANTICO,8,POLONUEVO,8558,-74.8531024212,10.7771663073,1,18197
931,2018,ATLANTICO,8,PONEDERA,8560,-74.7539006043,10.6417959018,2,23848
932,2018,ATLANTICO,8,PUERTO COLOMBIA,8573,-74.851963055,11.022939949,2,49264
933,2018,ATLANTICO,8,SABANALARGA,8638,-74.9210950072,10.6328326108,2,93261
934,2018,ATLANTICO,8,SOLEDAD,8758,-74.7848339582,10.9101742784,18,603999
935,2018,ATLANTICO,8,USIACURI,8849,-74.9769840969,10.742979811,1,12250
936,2018,BOGOTA,11,BOGOTA,11001,-74.106715324,4.64993705899,387,7412566
937,2018,BOLIVAR,13,ARJONA,13052,-75.3444876588,10.256630539,1,69503
938,2018,BOLIVAR,13,CALAMAR,13140,-74.9161222621,10.2503611819,2,22474
939,2018,BOLIVAR,13,CANTAGALLO,13160,-73.9146507991,7.37831394834,1,8234
940,2018,BOLIVAR,13,CARTAGENA DE INDIAS,13001,-75.4964264795,10.3849883546,42,973045
941,2018,BOLIVAR,13,EL CARMEN DE BOLIVAR,13244,-75.1212066427,9.71861199322,2,70131
942,2018,BOLIVAR,13,EL PENON,13268,-73.9494279539,8.98822535038,1,7651
943,2018,BOLIVAR,13,MAGANGUE,13430,-74.7667304396,9.26381346247,9,133270
944,2018,BOLIVAR,13,MAHATES,13433,-75.1913392756,10.2332538997,1,27692
945,2018,BOLIVAR,13,MARIA LA BAJA,13442,-75.3007611748,9.98264680271,2,46112
946,2018,BOLIVAR,13,MORALES,13473,-73.8681407138,8.27630560493,1,22259
947,2018,BOLIVAR,13,REGIDOR,13580,-73.8216376256,8.66625814425,1,6723
948,2018,BOLIVAR,13,SAN JUAN NEPOMUCENO,13657,-75.081354128,9.95345322129,1,36874
949,2018,BOLIVAR,13,SAN MARTIN DE LOBA,13667,-74.0390124624,8.93709261013,2,14774
950,2018,BOLIVAR,13,TURBACO,13836,-75.424409165,10.332772802,5,105166
951,2018,BOYACA,15,BOAVITA,15097,-72.5849675798,6.33065368603,1,5059
952,2018,BOYACA,15,BOYACA,15104,-73.3623009748,5.45423551545,1,5089
953,2018,BOYACA,15,CHIQUINQUIRA,15176,-73.8183869915,5.61412836353,2,56054
954,2018,BOYACA,15,CHITARAQUE,15185,-73.4471010235,6.02742601824,1,5830
955,2018,BOYACA,15,COMBITA,15204,-73.3239523652,5.63454905762,2,12970
956,2018,BOYACA,15,DUITAMA,15238,-73.030610836,5.82298464605,8,122436
957,2018,BOYACA,15,FIRAVITOBA,15272,-72.9933618342,5.66892506903,1,6662
958,2018,BOYACA,15,GARAGOA,15299,-73.3644267841,5.08324283869,1,17932
959,2018,BOYACA,15,IZA,15362,-72.9795593407,5.61157775921,1,1947
960,2018,BOYACA,15,JENESANO,15367,-73.3638083915,5.3857721813,1,7200
961,2018,BOYACA,15,JERICO,15368,-72.5711238428,6.14575069674,1,3929
962,2018,BOYACA,15,MIRAFLORES,15455,-73.1456279863,5.19651615513,1,8847
963,2018,BOYACA,15,MONIQUIRA,15469,-73.5733706158,5.87633305531,3,22572
964,2018,BOYACA,15,NOBSA,15491,-72.939853172,5.771042607,1,15976
965,2018,BOYACA,15,NUEVO COLON,15494,-73.4571348371,5.35514851706,2,5121
966,2018,BOYACA,15,PAIPA,15516,-73.1179179167,5.77994168888,1,33535
967,2018,BOYACA,15,PUERTO BOYACA,15572,-74.5877827354,5.97664715502,3,46736
968,2018,BOYACA,15,RAQUIRA,15600,-73.6325018712,5.53906792025,1,7877
969,2018,BOYACA,15,SABOYA,15632,-73.7646637544,5.69773271604,1,13588
970,2018,BOYACA,15,SAMACA,15646,-73.4856416273,5.49231280648,2,18298
971,2018,BOYACA,15,SAN JOSE DE PARE,15664,-73.5453757662,6.01897480756,1,4988
972,2018,BOYACA,15,SATIVASUR,15723,-72.7124418159,6.09317687278,1,1097
973,2018,BOYACA,15,SOCHA,15757,-72.6919658568,5.99671302142,1,7938
974,2018,BOYACA,15,SOGAMOSO,15759,-72.9230476498,5.72568884872,5,127235
975,2018,BOYACA,15,SORACA,15764,-73.3328033775,5.50090450683,1,5954
976,2018,BOYACA,15,SUSACON,15774,-72.6902910831,6.23033660169,2,2717
977,2018,BOYACA,15,TASCO,15790,-72.7810075025,5.90981708972,1,5882
978,2018,BOYACA,15,TIBANA,15804,-73.396456268,5.31725075558,1,9051
979,2018,BOYACA,15,TIBASOSA,15806,-72.9994496769,5.74722853114,3,12940
980,2018,BOYACA,15,TOCA,15814,-73.1847912527,5.56646952357,2,8767
981,2018,BOYACA,15,TUNJA,15001,-73.3554896602,5.5399515492,13,172548
982,2018,BOYACA,15,TURMEQUE,15835,-73.4918448747,5.32325210287,1,6118
983,2018,BOYACA,15,VILLA DE LEYVA,15407,-73.5246858959,5.63265703354,2,16139
984,2018,CALDAS,17,AGUADAS,17013,-75.454871642,5.61024846724,2,22823
985,2018,CALDAS,17,ANSERMA,17042,-75.784340784,5.23647611674,3,36149
986,2018,CALDAS,17,ARANZAZU,17050,-75.4912889044,5.27119632374,2,10557
987,2018,CALDAS,17,BELALCAZAR,17088,-75.8119012073,4.99382148715,1,10660
988,2018,CALDAS,17,CHINCHINA,17174,-75.6074818919,4.98581250175,4,51271
989,2018,CALDAS,17,LA DORADA,17380,-74.6684167053,5.46047440177,6,71905
990,2018,CALDAS,17,LA MERCED,17388,-75.5465723441,5.3963721836,2,6003
991,2018,CALDAS,17,MANIZALES,17001,-75.4910467146,5.05768733557,42,434403
992,2018,CALDAS,17,MARMATO,17442,-75.6002457911,5.47400212843,5,8888
993,2018,CALDAS,17,MARULANDA,17446,-75.2594017111,5.28433541214,1,2607
994,2018,CALDAS,17,NEIRA,17486,-75.5198428283,5.16670622135,3,21024
995,2018,CALDAS,17,PACORA,17513,-75.4596225837,5.52717452159,1,15325
996,2018,CALDAS,17,PALESTINA,17524,-75.6244642214,5.01783945198,3,15555
997,2018,CALDAS,17,PENSILVANIA,17541,-75.1603002765,5.38327868783,1,19908
998,2018,CALDAS,17,RIOSUCIO,17614,-75.7020653762,5.42367236012,2,50775
999,2018,CALDAS,17,SALAMINA,17653,-75.4872184576,5.40301872766,1,19467
1000,2018,CALDAS,17,SUPIA,17777,-75.6496602648,5.44683429424,1,28642
1001,2018,CALDAS,17,VILLAMARIA,17873,-75.513760602,5.043806686,1,64652
1002,2018,CAQUETA,18,BELEN DE LOS ANDAQUIES,18094,-75.8724736813,1.41578334458,1,11021
1003,2018,CAQUETA,18,CARTAGENA DEL CHAIRA,18150,-74.847245546,1.3331165659,1,30399
1004,2018,CAQUETA,18,CURILLO,18205,-75.9192010073,1.03347658287,1,7593
1005,2018,CAQUETA,18,EL DONCELLO,18247,-75.2835647468,1.67986937815,1,19294
1006,2018,CAQUETA,18,FLORENCIA,18001,-75.6085597398,1.61792408755,6,168346
1007,2018,CAQUETA,18,LA MONTANITA,18410,-75.4364058573,1.4791703207,2,14714
1008,2018,CAQUETA,18,PUERTO RICO,18592,-75.1574899204,1.90893446756,3,26517
1009,2018,CAQUETA,18,SAN VICENTE DEL CAGUAN,18753,-74.768675935,2.119492544,3,50719
1010,2018,CASANARE,85,AGUAZUL,85010,-72.5463004198,5.17269004261,2,36915
1011,2018,CASANARE,85,HATO COROZAL,85125,-71.7649240225,6.15617263862,1,12328
1012,2018,CASANARE,85,MANI,85139,-72.2813966623,4.81682498993,1,17211
1013,2018,CASANARE,85,MONTERREY,85162,-72.8950348515,4.87684630992,1,17537
1014,2018,CASANARE,85,NUNCHIA,85225,-72.1950710689,5.63666390187,1,8826
1015,2018,CASANARE,85,OROCUE,85230,-71.3385186268,4.79026959264,1,12340
1016,2018,CASANARE,85,PAZ DE ARIPORO,85250,-71.8909234158,5.88003712521,5,36277
1017,2018,CASANARE,85,PORE,85263,-71.9928594902,5.72773022764,1,11967
1018,2018,CASANARE,85,TAMARA,85400,-72.161823137,5.82982360982,1,6873
1019,2018,CASANARE,85,TAURAMENA,85410,-72.7472511701,5.01920691152,2,23527
1020,2018,CASANARE,85,TRINIDAD,85430,-71.6633415586,5.41221523214,2,13233
1021,2018,CASANARE,85,VILLANUEVA,85440,-72.9280536201,4.61007185165,1,35305
1022,2018,CASANARE,85,YOPAL,85001,-72.3969155417,5.32761201728,5,168433
1023,2018,CAUCA,19,ARGELIA,19050,-77.2494517909,2.2567543324,1,26144
1024,2018,CAUCA,19,BUENOS AIRES,19110,-76.64227784,3.01543022433,1,31436
1025,2018,CAUCA,19,CAJIBIO,19130,-76.5708848354,2.62334023515,1,42014
1026,2018,CAUCA,19,CALDONO,19137,-76.4844459642,2.79812829791,3,39946
1027,2018,CAUCA,19,CALOTO,19142,-76.4084869367,3.03407175083,2,30181
1028,2018,CAUCA,19,CORINTO,19212,-76.2613129114,3.17381378314,2,25286
1029,2018,CAUCA,19,JAMBALO,19364,-76.3238756382,2.7778396408,1,17841
1030,2018,CAUCA,19,LA SIERRA,19392,-76.7632016273,2.17932480074,1,10749
1031,2018,CAUCA,19,MERCADERES,19450,-77.1641946504,1.7924236808,1,22688
1032,2018,CAUCA,19,MORALES,19473,-76.6292210027,2.75455782584,1,38838
1033,2018,CAUCA,19,PATIA,19532,-77.053281163,2.06919819073,3,36848
1034,2018,CAUCA,19,POPAYAN,19001,-76.5988923721,2.45994897276,28,318059
1035,2018,CAUCA,19,PUERTO TEJADA,19573,-76.4173065509,3.23329388435,1,41615
1036,2018,CAUCA,19,ROSAS,19622,-76.7403500133,2.26096996661,1,11475
1037,2018,CAUCA,19,SANTA ROSA,19701,-76.5739728417,1.70241741098,1,5339
1038,2018,CAUCA,19,SANTANDER DE QUILICHAO,19698,-76.4853693048,3.0160508863,5,110445
1039,2018,CAUCA,19,SILVIA,19743,-76.3795694468,2.611815128,1,37337
1040,2018,CAUCA,19,SUAREZ,19780,-76.6934495691,2.95970043631,2,31904
1041,2018,CAUCA,19,SUCRE,19785,-76.9262768869,2.0382579101,1,9489
1042,2018,CAUCA,19,TIMBIO,19807,-76.6842365775,2.34997651977,3,35479
1043,2018,CAUCA,19,TIMBIQUI,19809,-77.6675621458,2.77741263243,1,26100
1044,2018,CAUCA,19,TORIBIO,19821,-76.2703068212,2.95299012669,1,35218
1045,2018,CAUCA,19,VILLA RICA,19845,-76.4578733961,3.17757710044,1,20693
1046,2018,CESAR,20,AGUACHICA,20011,-73.6129927186,8.30735417168,6,109621
1047,2018,CESAR,20,AGUSTIN CODAZZI,20013,-73.2383965158,10.040457318,3,60768
1048,2018,CESAR,20,ASTREA,20032,-73.9758629785,9.49816273938,1,20120
1049,2018,CESAR,20,BECERRIL,20045,-73.2791963317,9.70460046236,1,21611
1050,2018,CESAR,20,CHIMICHAGUA,20175,-73.8133298841,9.2582722175,3,34169
1051,2018,CESAR,20,CHIRIGUANA,20178,-73.600147529,9.36118941734,1,27694
1052,2018,CESAR,20,CURUMANI,20228,-73.5409854392,9.20181049336,2,37399
1053,2018,CESAR,20,EL COPEY,20238,-73.9627178522,10.1495254704,2,30159
1054,2018,CESAR,20,EL PASO,20250,-73.741788511,9.66847095606,3,37531
1055,2018,CESAR,20,LA GLORIA,20383,-73.8032098836,8.61929805971,1,17150
1056,2018,CESAR,20,LA JAGUA DE IBIRICO,20400,-73.3342269159,9.56388783532,2,46722
1057,2018,CESAR,20,PAILITAS,20517,-73.6257673178,8.95939949775,1,18566
1058,2018,CESAR,20,PELAYA,20550,-73.6663564352,8.68865050982,3,20683
1059,2018,CESAR,20,PUEBLO BELLO,20570,-73.5862472969,10.4172860694,1,27007
1060,2018,CESAR,20,RIO DE ORO,20614,-73.3863920498,8.29228968373,1,16837
1061,2018,CESAR,20,SAN ALBERTO,20710,-73.3942253371,7.76082444485,3,26247
1062,2018,CESAR,20,VALLEDUPAR,20001,-73.2593904181,10.4604806696,35,490075
1063,2018,CHOCO,27,SAN JOSE DEL PALMAR,27660,-76.232848825,4.89759308,1,5114
1064,2018,CORDOBA,23,CERETE,23162,-75.7961971634,8.88859098259,7,105815
1065,2018,CORDOBA,23,LA APARTADA,23350,-75.3357616802,8.04990063857,1,14866
1066,2018,CORDOBA,23,LOS CORDOBAS,23419,-76.3551906966,8.89216246089,1,18717
1067,2018,CORDOBA,23,MONITOS,23500,-76.1293957384,9.24527627335,1,29833
1068,2018,CORDOBA,23,MONTELIBANO,23466,-75.4168167918,7.97377871713,3,81641
1069,2018,CORDOBA,23,MONTERIA,23001,-75.8732573059,8.75981523965,14,490935
1070,2018,CORDOBA,23,PUERTO LIBERTADOR,23580,-75.6718011007,7.88883325281,2,41873
1071,2018,CORDOBA,23,PURISIMA DE LA CONCEPCION,23586,-75.7248856036,9.23929988718,1,17206
1072,2018,CORDOBA,23,SAHAGUN,23660,-75.4459201696,8.94312756605,2,107636
1073,2018,CORDOBA,23,SAN ANTERO,23672,-75.7607741431,9.37621656532,1,33878
1074,2018,CORDOBA,23,SAN BERNARDO DEL VIENTO,23675,-75.9547986436,9.35228972856,1,37007
1075,2018,CUNDINAMARCA,25,AGUA DE DIOS,25001,-74.6692192503,4.37531467846,1,11685
1076,2018,CUNDINAMARCA,25,ANAPOIMA,25035,-74.5285181395,4.562955419,2,14519
1077,2018,CUNDINAMARCA,25,ANOLAIMA,25040,-74.4638356057,4.76169908987,1,13816
1078,2018,CUNDINAMARCA,25,APULO,25599,-74.5938056203,4.52034489324,1,8192
1079,2018,CUNDINAMARCA,25,CACHIPAY,25123,-74.4357007521,4.73095518422,1,9972
1080,2018,CUNDINAMARCA,25,CAPARRAPI,25148,-74.4911179964,5.34794115431,2,12569
1081,2018,CUNDINAMARCA,25,CAQUEZA,25151,-73.9464770211,4.4040950188,4,17099
1082,2018,CUNDINAMARCA,25,CARMEN DE CARUPA,25154,-73.901570514,5.34911594802,1,7580
1083,2018,CUNDINAMARCA,25,CHIA,25175,-74.0503469604,4.86606490054,7,132181
1084,2018,CUNDINAMARCA,25,CHOACHI,25181,-73.9228969985,4.52704366102,1,10961
1085,2018,CUNDINAMARCA,25,COGUA,25200,-73.9784922543,5.06184103042,1,22067
1086,2018,CUNDINAMARCA,25,COTA,25214,-74.1027271672,4.81298461,3,32691
1087,2018,CUNDINAMARCA,25,EL COLEGIO,25245,-74.4426667684,4.57835941509,1,23886
1088,2018,CUNDINAMARCA,25,EL ROSAL,25260,-74.2630068618,4.85053609442,2,22065
1089,2018,CUNDINAMARCA,25,FACATATIVA,25269,-74.3502169563,4.81303164667,16,139441
1090,2018,CUNDINAMARCA,25,FOMEQUE,25279,-73.8925231,4.48547472611,1,11986
1091,2018,CUNDINAMARCA,25,FOSCA,25281,-73.9390162392,4.33910044417,1,5784
1092,2018,CUNDINAMARCA,25,FUNZA,25286,-74.2014894559,4.71038172914,3,93154
1093,2018,CUNDINAMARCA,25,FUSAGASUGA,25290,-74.3754601635,4.33667468248,11,138498
1094,2018,CUNDINAMARCA,25,GACHALA,25293,-73.5201588297,4.69357747191,1,4436
1095,2018,CUNDINAMARCA,25,GACHETA,25297,-73.6363761477,4.81641129086,1,8425
1096,2018,CUNDINAMARCA,25,GIRARDOT,25307,-74.7977961492,4.31307939531,7,101018
1097,2018,CUNDINAMARCA,25,GUACHETA,25317,-73.6870945845,5.38374153344,2,13285
1098,2018,CUNDINAMARCA,25,GUADUAS,25320,-74.6029553866,5.07187008998,5,30524
1099,2018,CUNDINAMARCA,25,GUAYABAL DE SIQUIMA,25328,-74.4674372775,4.87796944798,1,4444
1100,2018,CUNDINAMARCA,25,JERUSALEN,25368,-74.6954162724,4.56230969976,1,2281
1101,2018,CUNDINAMARCA,25,LA MESA,25386,-74.4615492187,4.63104312817,1,32694
1102,2018,CUNDINAMARCA,25,LA VEGA,25402,-74.331153833,4.993079959,2,16986
1103,2018,CUNDINAMARCA,25,LENGUAZAQUE,25407,-73.7114939184,5.30614737724,1,10080
1104,2018,CUNDINAMARCA,25,MADRID,25430,-74.2637266314,4.73273240481,3,112254
1105,2018,CUNDINAMARCA,25,MEDINA,25438,-73.3491229581,4.50661521497,2,8014
1106,2018,CUNDINAMARCA,25,MOSQUERA,25473,-74.2193416046,4.70701024824,5,130221
1107,2018,CUNDINAMARCA,25,NEMOCON,25486,-73.8778894768,5.0687018248,1,13171
1108,2018,CUNDINAMARCA,25,NILO,25488,-74.6199683585,4.30580601104,2,10819
1109,2018,CUNDINAMARCA,25,PACHO,25513,-74.156116064,5.13694532224,2,24413
1110,2018,CUNDINAMARCA,25,PAIME,25518,-74.1522155939,5.37048460317,1,4186
1111,2018,CUNDINAMARCA,25,PANDI,25524,-74.4866421835,4.19039063967,1,4973
1112,2018,CUNDINAMARCA,25,PARATEBUENO,25530,-73.2128246502,4.37483210325,1,8328
1113,2018,CUNDINAMARCA,25,PASCA,25535,-74.3024837134,4.30905937901,1,9105
1114,2018,CUNDINAMARCA,25,QUEBRADANEGRA,25592,-74.4801450411,5.11806886067,1,4724
1115,2018,CUNDINAMARCA,25,SAN ANTONIO DEL TEQUENDAMA,25645,-74.3514505895,4.61613464307,2,11870
1116,2018,CUNDINAMARCA,25,SAN JUAN DE RIOSECO,25662,-74.6219134166,4.84757915971,1,8181
1117,2018,CUNDINAMARCA,25,SASAIMA,25718,-74.4326283935,4.96216463559,1,10711
1118,2018,CUNDINAMARCA,25,SIBATE,25740,-74.2578772349,4.49261081381,3,33491
1119,2018,CUNDINAMARCA,25,SILVANIA,25743,-74.4055246172,4.3819448056,1,21625
1120,2018,CUNDINAMARCA,25,SOACHA,25754,-74.2154309452,4.57939176705,33,660179
1121,2018,CUNDINAMARCA,25,SOPO,25758,-73.9433295095,4.91539965901,1,25782
1122,2018,CUNDINAMARCA,25,SUBACHOQUE,25769,-74.1727096099,4.92907887681,3,15690
1123,2018,CUNDINAMARCA,25,SUTATAUSA,25781,-73.853153077,5.24748742315,1,5887
1124,2018,CUNDINAMARCA,25,TABIO,25785,-74.0961796864,4.91720363832,3,21665
1125,2018,CUNDINAMARCA,25,TENJO,25799,-74.1439551406,4.87195981007,1,21935
1126,2018,CUNDINAMARCA,25,TIBIRITA,25807,-73.5045147407,5.05227733692,1,3158
1127,2018,CUNDINAMARCA,25,TOCAIMA,25815,-74.6363056249,4.45927226504,1,15735
1128,2018,CUNDINAMARCA,25,TOCANCIPA,25817,-73.9120940816,4.96478385194,1,39996
1129,2018,CUNDINAMARCA,25,UBAQUE,25841,-73.9334633747,4.4837999031,1,6727
1130,2018,CUNDINAMARCA,25,UTICA,25851,-74.4831194836,5.19058902078,1,4246
1131,2018,CUNDINAMARCA,25,VILLETA,25875,-74.4697042298,5.01279238093,2,26873
1132,2018,CUNDINAMARCA,25,ZIPAQUIRA,25899,-73.9944757558,5.02547142431,9,130537
1133,2018,GUAINIA,94,INIRIDA,94001,-67.9186012392,3.86662347201,1,31514
1134,2018,GUAVIARE,95,CALAMAR,95015,-72.6551728661,1.96010887255,1,9528
1135,2018,GUAVIARE,95,SAN JOSE DEL GUAVIARE,95001,-72.6390287201,2.56608342423,3,52815
1136,2018,HUILA,41,ACEVEDO,41006,-75.8885349597,1.80526386823,1,24774
1137,2018,HUILA,41,AIPE,41016,-75.2390312259,3.22359766887,2,16163
1138,2018,HUILA,41,CAMPOALEGRE,41132,-75.325759412,2.6868370205,2,31087
1139,2018,HUILA,41,GARZON,41298,-75.6270510273,2.1964533881,6,72382
1140,2018,HUILA,41,GIGANTE,41306,-75.5476811212,2.38403102318,1,24583
1141,2018,HUILA,41,GUADALUPE,41319,-75.7570381788,2.0241600111,2,17890
1142,2018,HUILA,41,HOBO,41349,-75.4477305142,2.58082594244,1,7286
1143,2018,HUILA,41,IQUIRA,41357,-75.6345024698,2.64935228705,1,9248
1144,2018,HUILA,41,LA ARGENTINA,41378,-75.9797673085,2.19824600615,3,12866
1145,2018,HUILA,41,LA PLATA,41396,-75.8914521307,2.3896474978,6,61026
1146,2018,HUILA,41,NEIVA,41001,-75.2777314808,2.93555887476,19,357392
1147,2018,HUILA,41,PALERMO,41524,-75.4348239701,2.88937485898,1,26279
1148,2018,HUILA,41,PITAL,41548,-75.8040001118,2.26668106868,2,13787
1149,2018,HUILA,41,PITALITO,41551,-76.0490044984,1.85297434352,10,124359
1150,2018,HUILA,41,RIVERA,41615,-75.258550208,2.77757018071,4,24312
1151,2018,HUILA,41,SAN AGUSTIN,41668,-76.2703587983,1.8810855128,1,33028
1152,2018,HUILA,41,SANTA MARIA,41676,-75.5861244534,2.93974915231,2,10405
1153,2018,HUILA,41,SUAZA,41770,-75.7950572711,1.97584502137,1,21853
1154,2018,HUILA,41,TARQUI,41791,-75.8235763181,2.11132341997,1,17440
1155,2018,HUILA,41,TELLO,41799,-75.1387731609,3.06753684585,3,11800
1156,2018,HUILA,41,TESALIA,41797,-75.7298384859,2.48605278998,1,10697
1157,2018,HUILA,41,TIMANA,41807,-75.9320853384,1.97422503882,1,21799
1158,2018,HUILA,41,VILLAVIEJA,41872,-75.2171038079,3.21883156581,1,7288
1159,2018,MAGDALENA,47,ARACATACA,47053,-74.1867609537,10.5897988592,3,39857
1160,2018,MAGDALENA,47,CIENAGA,47189,-74.2412855651,11.0066586077,5,120071
1161,2018,MAGDALENA,47,EL BANCO,47245,-73.9742847149,9.0087359751,5,65457
1162,2018,MAGDALENA,47,FUNDACION,47288,-74.1913417387,10.5140917977,3,66433
1163,2018,MAGDALENA,47,REMOLINO,47605,-74.716139312,10.7021709717,1,11445
1164,2018,MAGDALENA,47,SANTA BARBARA DE PINTO,47720,-74.7046839218,9.4322584701,2,10575
1165,2018,MAGDALENA,47,SANTA MARTA,47001,-74.2002109893,11.2047725963,21,499192
1166,2018,MAGDALENA,47,TENERIFE,47798,-74.8607737651,9.8977882091,2,13236
1167,2018,META,50,ACACIAS,50006,-73.7659360698,3.99012009704,5,88023
1168,2018,META,50,CUMARAL,50226,-73.4861069057,4.26953744789,2,22831
1169,2018,META,50,GRANADA,50313,-73.7057158517,3.5466952856,2,68876
1170,2018,META,50,GUAMAL,50318,-73.7699625676,3.88014002777,2,14119
1171,2018,META,50,MESETAS,50330,-74.0443712626,3.38325958558,2,11159
1172,2018,META,50,PUERTO GAITAN,50568,-72.083078729,4.314485152,1,41513
1173,2018,META,50,PUERTO LOPEZ,50573,-72.9574366102,4.09340699377,4,30399
1174,2018,META,50,PUERTO RICO,50590,-73.2065146907,2.93974329234,1,13061
1175,2018,META,50,RESTREPO,50606,-73.5646064827,4.26072972714,1,18268
1176,2018,META,50,SAN CARLOS DE GUAROA,50680,-73.2414110088,3.71053695717,2,12296
1177,2018,META,50,SAN MARTIN,50689,-73.6956173593,3.70188012803,4,26707
1178,2018,META,50,URIBE,50370,-74.3515437091,3.23965331351,1,9284
1179,2018,META,50,VILLAVICENCIO,50001,-73.624562528,4.1238593011,21,531275
1180,2018,META,50,VISTAHERMOSA,50711,-73.7510280336,3.1256671671,1,17778
1181,2018,NARINO,52,ALDANA,52022,-77.7003576715,0.882181786542,1,7392
1182,2018,NARINO,52,BARBACOAS,52079,-78.1375768702,1.67144343524,3,55633
1183,2018,NARINO,52,CHACHAGUI,52240,-77.2816959,1.36032207453,1,15354
1184,2018,NARINO,52,CORDOBA,52215,-77.5178993163,0.854572506919,1,15516
1185,2018,NARINO,52,FUNES,52287,-77.4489750806,1.00113044411,1,7222
1186,2018,NARINO,52,IMUES,52354,-77.4961681198,1.05513327782,1,7657
1187,2018,NARINO,52,IPIALES,52356,-77.6463999012,0.827735060636,7,116136
1188,2018,NARINO,52,LA TOLA,52390,-78.1903918916,2.3982099715,1,7411
1189,2018,NARINO,52,LA UNION,52399,-77.1311540017,1.60025484037,1,31858
1190,2018,NARINO,52,LEIVA,52405,-77.3062024933,1.93451165112,1,9768
1191,2018,NARINO,52,PUPIALES,52585,-77.63350443,0.867138527,1,17491
1192,2018,NARINO,52,SANDONA,52683,-77.4730451357,1.28314414356,1,20773
1193,2018,NARINO,52,TANGUA,52788,-77.3926919626,1.0948780282,3,13507
1194,2018,NARINO,52,TUQUERRES,52838,-77.6168833378,1.08519299564,4,44729
1195,2018,PUTUMAYO,86,MOCOA,86001,-76.6515068624,1.1525800991,2,56398
1196,2018,PUTUMAYO,86,ORITO,86320,-76.8730276477,0.663818348772,1,37745
1197,2018,PUTUMAYO,86,PUERTO ASIS,86568,-76.4972710861,0.505047577006,6,64867
1198,2018,PUTUMAYO,86,PUERTO GUZMAN,86571,-76.408521789,0.962923612274,1,35390
1199,2018,PUTUMAYO,86,PUERTO LEGUIZAMO,86573,-74.7824713482,-0.191870260599,4,28468
1200,2018,PUTUMAYO,86,SIBUNDOY,86749,-76.9174823545,1.20011541585,1,14940
1201,2018,PUTUMAYO,86,VILLAGARZON,86885,-76.6171636979,1.02893997049,3,23700
1202,2018,QUINDIO,63,ARMENIA,63001,-75.6807545438,4.535987208,28,295208
1203,2018,QUINDIO,63,CALARCA,63130,-75.6455330683,4.52148797904,7,72783
1204,2018,QUINDIO,63,CIRCASIA,63190,-75.6365262734,4.61779473259,4,28162
1205,2018,QUINDIO,63,FILANDIA,63272,-75.6586823883,4.67414703386,1,12066
1206,2018,QUINDIO,63,GENOVA,63302,-75.790631528,4.20651089858,2,7516
1207,2018,QUINDIO,63,LA TEBAIDA,63401,-75.786460159,4.45365278508,5,33451
1208,2018,QUINDIO,63,MONTENEGRO,63470,-75.7498287033,4.56505578418,4,36751
1209,2018,QUINDIO,63,PIJAO,63548,-75.7033166279,4.33504179687,1,5219
1210,2018,QUINDIO,63,QUIMBAYA,63594,-75.7650742652,4.62438412181,3,30751
1211,2018,QUINDIO,63,SALENTO,63690,-75.5708458112,4.63715372291,2,9260
1212,2018,RISARALDA,66,BELEN DE UMBRIA,66088,-75.868216089,5.20064515187,3,24690
1213,2018,RISARALDA,66,DOSQUEBRADAS,66170,-75.6761693197,4.83402887527,17,217178
1214,2018,RISARALDA,66,LA VIRGINIA,66400,-75.8802026174,4.89654777308,3,27923
1215,2018,RISARALDA,66,MARSELLA,66440,-75.7385816147,4.93556204249,3,16940
1216,2018,RISARALDA,66,MISTRATO,66456,-75.8828627404,5.29706285959,1,16950
1217,2018,RISARALDA,66,PEREIRA,66001,-75.7190152322,4.80532287092,35,467269
1218,2018,RISARALDA,66,PUEBLO RICO,66572,-76.0306678019,5.22191328206,1,16156
1219,2018,RISARALDA,66,QUINCHIA,66594,-75.7304104711,5.34044152422,3,27292
1220,2018,RISARALDA,66,SANTA ROSA DE CABAL,66682,-75.6234918103,4.87640374593,7,77838
1221,2018,RISARALDA,66,SANTUARIO,66687,-75.9645220611,5.07493802723,1,12664
1222,2018,SANTANDER,68,AGUADA,68013,-73.5232262196,6.16224498637,1,1855
1223,2018,SANTANDER,68,BARRANCABERMEJA,68081,-73.8499567312,7.06496573153,11,203537
1224,2018,SANTANDER,68,BETULIA,68092,-73.2836713462,6.89952350256,1,5941
1225,2018,SANTANDER,68,BOLIVAR,68101,-73.7713434117,5.98895175043,2,11287
1226,2018,SANTANDER,68,BUCARAMANGA,68001,-73.1325976221,7.11626842734,40,581130
1227,2018,SANTANDER,68,CALIFORNIA,68132,-72.9463686609,7.34788166378,1,2130
1228,2018,SANTANDER,68,CARCASI,68152,-72.627083427,6.6287276598,1,4292
1229,2018,SANTANDER,68,CHARALA,68167,-73.1468716584,6.28434433944,1,12270
1230,2018,SANTANDER,68,CHIMA,68176,-73.3737319916,6.34435038365,1,2875
1231,2018,SANTANDER,68,CHIPATA,68179,-73.6371138841,6.06252035758,1,5075
1232,2018,SANTANDER,68,CIMITARRA,68190,-73.9525715248,6.32063022524,3,32947
1233,2018,SANTANDER,68,CONCEPCION,68207,-72.694595635,6.76883643116,1,5738
1234,2018,SANTANDER,68,CONFINES,68209,-73.2405558524,6.35733168284,1,3159
1235,2018,SANTANDER,68,CURITI,68229,-73.0693896277,6.6051082188,1,12717
1236,2018,SANTANDER,68,EL CARMEN DE CHUCURI,68235,-73.511267745,6.697907475,1,20916
1237,2018,SANTANDER,68,ENCISO,68266,-72.6996509127,6.66803370305,1,3461
1238,2018,SANTANDER,68,FLORIAN,68271,-73.9714235605,5.80465898835,1,5562
1239,2018,SANTANDER,68,FLORIDABLANCA,68276,-73.0990307075,7.07236450273,14,291935
1240,2018,SANTANDER,68,GAMBITA,68298,-73.3441797754,5.94597839459,1,4021
1241,2018,SANTANDER,68,GIRON,68307,-73.1667133582,7.07052391696,7,160403
1242,2018,SANTANDER,68,LANDAZURI,68385,-73.8110930176,6.21874730469,1,10384
1243,2018,SANTANDER,68,LEBRIJA,68406,-73.2195525933,7.11335571687,2,41835
1244,2018,SANTANDER,68,LOS SANTOS,68418,-73.1026597725,6.75517251979,1,14106
1245,2018,SANTANDER,68,MATANZA,68444,-73.0155652728,7.32318040602,1,4976
1246,2018,SANTANDER,68,MOLAGAVITA,68468,-72.8094754311,6.6743545443,1,4137
1247,2018,SANTANDER,68,OIBA,68500,-73.2997849665,6.26517211387,2,10800
1248,2018,SANTANDER,68,PIEDECUESTA,68547,-73.0545933904,6.99735677431,12,170625
1249,2018,SANTANDER,68,PINCHOTE,68549,-73.1729190191,6.53206093514,1,5162
1250,2018,SANTANDER,68,PUENTE NACIONAL,68572,-73.6781328396,5.87796256489,1,14654
1251,2018,SANTANDER,68,PUERTO PARRA,68573,-74.0560908372,6.65080789008,1,7640
1252,2018,SANTANDER,68,PUERTO WILCHES,68575,-73.899334022,7.349066143,3,32791
1253,2018,SANTANDER,68,RIONEGRO,68615,-73.150142083,7.26500895024,3,26438
1254,2018,SANTANDER,68,SABANA DE TORRES,68655,-73.4990518794,7.39191179389,1,33055
1255,2018,SANTANDER,68,SAN GIL,68679,-73.1351665257,6.55295530633,7,56037
1256,2018,SANTANDER,68,SAN VICENTE DE CHUCURI,68689,-73.4110187818,6.88037882713,6,33133
1257,2018,SANTANDER,68,SIMACOTA,68745,-73.3373665723,6.44346957242,1,10042
1258,2018,SANTANDER,68,SOCORRO,68755,-73.2611960328,6.46385144732,1,32158
1259,2018,SANTANDER,68,SUAITA,68770,-73.438416356,6.10353145,1,10031
1260,2018,SANTANDER,68,TONA,68820,-72.967024817,7.20140058159,4,7373
1261,2018,SANTANDER,68,VELEZ,68861,-73.666299069,6.010953449,2,24356
1262,2018,SUCRE,70,BUENAVISTA,70110,-74.9730193151,9.31985711931,1,10441
1263,2018,SUCRE,70,COROZAL,70215,-75.2931493701,9.31910061656,6,67371
1264,2018,SUCRE,70,COVENAS,70221,-75.6800839749,9.4028636807,2,18250
1265,2018,SUCRE,70,EL ROBLE,70233,-75.1984347707,9.10066970519,2,9944
1266,2018,SUCRE,70,LOS PALMITOS,70418,-75.268750942,9.3802289505,2,22880
1267,2018,SUCRE,70,MORROA,70473,-75.306200083,9.33132173665,1,15061
1268,2018,SUCRE,70,SAMPUES,70670,-75.3802942192,9.18312851604,3,46455
1269,2018,SUCRE,70,SAN BENITO ABAD,70678,-75.0311600711,8.92996976102,1,28673
1270,2018,SUCRE,70,SAN MARCOS,70708,-75.134084767,8.66194596532,1,57672
1271,2018,SUCRE,70,SAN PEDRO,70717,-75.0634845353,9.39596570901,2,18590
1272,2018,SUCRE,70,SANTIAGO DE TOLU,70820,-75.5811043366,9.52547457425,1,32922
1273,2018,SUCRE,70,SINCELEJO,70001,-75.395481772,9.30233021687,23,277773
1274,2018,SUCRE,70,TOLU VIEJO,70823,-75.4408214257,9.45183874964,1,21339
1275,2018,TOLIMA,73,ALVARADO,73026,-74.9535551796,4.56734522829,2,8697
1276,2018,TOLIMA,73,ANZOATEGUI,73043,-75.093777187,4.63175549718,1,10217
1277,2018,TOLIMA,73,ATACO,73067,-75.3825339259,3.59063460119,2,19330
1278,2018,TOLIMA,73,CAJAMARCA,73124,-75.435485263,4.436677041,5,18471
1279,2018,TOLIMA,73,CARMEN DE APICALA,73148,-74.7163719929,4.15094359506,2,10117
1280,2018,TOLIMA,73,CHAPARRAL,73168,-75.4807434103,3.72306834875,2,50367
1281,2018,TOLIMA,73,COYAIMA,73217,-75.193878839,3.79803620302,1,22813
1282,2018,TOLIMA,73,FALAN,73270,-74.9530204607,5.12310402379,1,7693
1283,2018,TOLIMA,73,FLANDES,73275,-74.8187677213,4.2763717138,1,28389
1284,2018,TOLIMA,73,FRESNO,73283,-75.0356196095,5.15363945469,2,31069
1285,2018,TOLIMA,73,GUAMO,73319,-74.9681289601,4.03100475679,2,32940
1286,2018,TOLIMA,73,HONDA,73349,-74.741577974,5.2015089,3,24693
1287,2018,TOLIMA,73,IBAGUE,73001,-75.1953679078,4.43280938914,38,529635
1288,2018,TOLIMA,73,LIBANO,73411,-75.0619532821,4.92041843293,2,36773
1289,2018,TOLIMA,73,MELGAR,73449,-74.6409314721,4.20394596681,3,36536
1290,2018,TOLIMA,73,MURILLO,73461,-75.1710222819,4.87434134976,1,4113
1291,2018,TOLIMA,73,NATAGAIMA,73483,-75.0931111288,3.62438908901,1,14835
1292,2018,TOLIMA,73,ORTEGA,73504,-75.2226023939,3.93491661562,2,34607
1293,2018,TOLIMA,73,PALOCABILDO,73520,-75.02222013,5.1208856555,1,9730
1294,2018,TOLIMA,73,PLANADAS,73555,-75.6439602657,3.19765191111,1,25764
1295,2018,TOLIMA,73,PURIFICACION,73585,-74.9353707228,3.8572509421,3,23536
1296,2018,TOLIMA,73,RIOBLANCO,73616,-75.6443757976,3.52986047716,1,22771
1297,2018,TOLIMA,73,ROVIRA,73624,-75.2408706668,4.2389330111,4,21674
1298,2018,TOLIMA,73,SAN ANTONIO,73675,-75.4799125909,3.9140451612,1,12896
1299,2018,TOLIMA,73,SAN LUIS,73678,-75.0957912296,4.13371813034,2,13553
1300,2018,TOLIMA,73,SUAREZ,73770,-74.831889635,4.04888384846,1,3813
1301,2018,TOLIMA,73,VILLARRICA,73873,-74.6002427195,3.93692369495,1,5128
1302,2018,VAUPES,97,MITU,97001,-70.2347514774,1.25118655571,5,29850
1303,2018,VAUPES,97,PACOA,97511,-71.0043443529,0.0207023436272,1,4042
1304,2018,VICHADA,99,LA PRIMAVERA,99524,-70.4104207997,5.48633716237,1,10122
1305,2018,VICHADA,99,PUERTO CARRENO,99001,-67.4869961433,6.1868629253,1,20936
1306,2019,AMAZONAS,91,LETICIA,91001,-69.9415818923,-4.19844539201,5,48918
1307,2019,ANTIOQUIA,5,AMAGA,5030,-75.7019483389,6.03880842381,4,30777
1308,2019,ANTIOQUIA,5,AMALFI,5031,-75.0774749239,6.90967360478,1,26552
1309,2019,ANTIOQUIA,5,ANDES,5034,-75.878794075,5.65676971311,1,43713
1310,2019,ANTIOQUIA,5,ANORI,5040,-75.1483449609,7.07471004137,1,18737
1311,2019,ANTIOQUIA,5,APARTADO,5045,-76.6258909217,7.88325108195,1,124647
1312,2019,ANTIOQUIA,5,ARBOLETES,5051,-76.4266581639,8.84991827334,1,29942
1313,2019,ANTIOQUIA,5,ARGELIA,5055,-75.1410633595,5.73147922832,1,7577
1314,2019,ANTIOQUIA,5,BARBOSA,5079,-75.3316403017,6.4392260115,1,53242
1315,2019,ANTIOQUIA,5,BELLO,5088,-75.5546673053,6.33406558292,35,538527
1316,2019,ANTIOQUIA,5,BETULIA,5093,-75.9845155699,6.11525553285,1,15736
1317,2019,ANTIOQUIA,5,CALDAS,5129,-75.6336168248,6.09129760323,6,81658
1318,2019,ANTIOQUIA,5,CAMPAMENTO,5134,-75.298084784,6.97977648289,1,9202
1319,2019,ANTIOQUIA,5,CANASGORDAS,5138,-76.0282237214,6.7538443832,2,15490
1320,2019,ANTIOQUIA,5,CARACOLI,5142,-74.7574542879,6.40985175825,1,4537
1321,2019,ANTIOQUIA,5,CAREPA,5147,-76.653210744,7.75511548219,2,49659
1322,2019,ANTIOQUIA,5,CAUCASIA,5154,-75.1982784645,7.97734097812,3,93044
1323,2019,ANTIOQUIA,5,CHIGORODO,5172,-76.6812146131,7.66630069082,3,58684
1324,2019,ANTIOQUIA,5,CISNEROS,5190,-75.0872051341,6.53776304826,1,9844
1325,2019,ANTIOQUIA,5,CIUDAD BOLIVAR,5101,-76.0215106815,5.85027282845,2,26160
1326,2019,ANTIOQUIA,5,COCORNA,5197,-75.1854817244,6.05830616761,2,15042
1327,2019,ANTIOQUIA,5,CONCORDIA,5209,-75.9084535194,6.04608659615,1,21504
1328,2019,ANTIOQUIA,5,COPACABANA,5212,-75.5093435119,6.34863947056,3,80000
1329,2019,ANTIOQUIA,5,DABEIBA,5234,-76.2616178227,6.99811575168,3,23255
1330,2019,ANTIOQUIA,5,DONMATIAS,5237,-75.3926751288,6.48560723899,2,19332
1331,2019,ANTIOQUIA,5,EL CARMEN DE VIBORAL,5148,-75.3342620232,6.08347326731,9,61122
1332,2019,ANTIOQUIA,5,EL SANTUARIO,5697,-75.2654679804,6.13685720436,1,36043
1333,2019,ANTIOQUIA,5,ENVIGADO,5266,-75.5830089369,6.16700589298,17,236114
1334,2019,ANTIOQUIA,5,FREDONIA,5282,-75.6750932516,5.9280855467,2,24553
1335,2019,ANTIOQUIA,5,GIRALDO,5306,-75.9521573015,6.68080793863,1,5652
1336,2019,ANTIOQUIA,5,GIRARDOTA,5308,-75.4444597681,6.37961535607,2,53162
1337,2019,ANTIOQUIA,5,GRANADA,5313,-75.1844500639,6.1429023597,1,9870
1338,2019,ANTIOQUIA,5,GUADALUPE,5315,-75.2398564806,6.81506996357,2,6607
1339,2019,ANTIOQUIA,5,GUARNE,5318,-75.4416535712,6.27802696108,3,56774
1340,2019,ANTIOQUIA,5,ITAGUI,5360,-75.6120815283,6.174929734,22,283794
1341,2019,ANTIOQUIA,5,JARDIN,5364,-75.8189807815,5.59753984677,2,14662
1342,2019,ANTIOQUIA,5,LA CEJA,5376,-75.4294329272,6.02805465836,5,66746
1343,2019,ANTIOQUIA,5,LA ESTRELLA,5380,-75.645190382,6.15841993,8,73696
1344,2019,ANTIOQUIA,5,LA UNION,5400,-75.3608622911,5.97387113417,1,21963
1345,2019,ANTIOQUIA,5,MARINILLA,5440,-75.3394598367,6.17404951538,5,66399
1346,2019,ANTIOQUIA,5,MEDELLIN,5001,-75.5760017134,6.24858636743,190,2483545
1347,2019,ANTIOQUIA,5,MURINDO,5475,-76.8174595267,6.97768956086,1,5088
1348,2019,ANTIOQUIA,5,MUTATA,5480,-76.4358758959,7.24287193339,2,14196
1349,2019,ANTIOQUIA,5,NECOCLI,5490,-76.784574497,8.426136098,3,43257
1350,2019,ANTIOQUIA,5,PENOL,5541,-75.2428178132,6.21945021233,1,21427
1351,2019,ANTIOQUIA,5,PUERTO TRIUNFO,5591,-74.6412656382,5.87120719689,4,18550
1352,2019,ANTIOQUIA,5,REMEDIOS,5604,-74.6980471636,7.02939076621,1,29061
1353,2019,ANTIOQUIA,5,RIONEGRO,5615,-75.3767667557,6.1472245313,14,139553
1354,2019,ANTIOQUIA,5,SABANALARGA,5628,-75.8166459364,6.85002081371,1,9155
1355,2019,ANTIOQUIA,5,SABANETA,5631,-75.6155845416,6.15096981767,5,85484
1356,2019,ANTIOQUIA,5,SAN ANDRES DE CUERQUIA,5647,-75.6747339859,6.91680279924,1,7240
1357,2019,ANTIOQUIA,5,SAN CARLOS,5649,-74.9879605158,6.18798980145,1,15940
1358,2019,ANTIOQUIA,5,SAN JERONIMO,5656,-75.7270000843,6.44806585636,4,15710
1359,2019,ANTIOQUIA,5,SAN JOSE DE LA MONTANA,5658,-75.6833564182,6.85008880044,1,3706
1360,2019,ANTIOQUIA,5,SAN LUIS,5660,-74.9936401255,6.04298332565,1,13035
1361,2019,ANTIOQUIA,5,SAN PEDRO DE LOS MILAGROS,5664,-75.5567189241,6.46013808244,2,22447
1362,2019,ANTIOQUIA,5,SAN RAFAEL,5667,-75.0279828807,6.29375698332,2,15632
1363,2019,ANTIOQUIA,5,SAN ROQUE,5670,-75.0191661484,6.48594047044,2,21533
1364,2019,ANTIOQUIA,5,SANTA BARBARA,5679,-75.5673548634,5.87554181135,1,26944
1365,2019,ANTIOQUIA,5,SANTA ROSA DE OSOS,5686,-75.460740037,6.64332643406,8,37143
1366,2019,ANTIOQUIA,5,SANTO DOMINGO,5690,-75.1649580592,6.47283350377,1,12326
1367,2019,ANTIOQUIA,5,SEGOVIA,5736,-74.701588722,7.07963898594,2,38692
1368,2019,ANTIOQUIA,5,SONSON,5756,-75.3093960124,5.7148075835,2,36394
